OID_,PerSqFeet,Area,lat,lon,NAME_ENG,OP_YRM,FLAT_NO,DGFA,NDGFA,TOTAL,BD_STOREY,Year,Income2016,WalkDis,Lift,SDU_cat,Potential,Management,MajorEstat,Easting,Northing,dc_eng,SDU_IND
4,7643,942,22.29019,114.19685,MIDO APARTMENTS,7/1/1958 0:00,0,5360.1,918.6,6278.7,16,66,26780,0.4,1,1,0,1,0,838326,816811,Eastern,**
6,10852,645,22.28957,114.20908,LIDO APARTMENTS,5/1/1958 0:00,0,12936.5,542.9,13479.4,17,66,26990,0.2,1,1,0,1,0,839609,816746,Eastern,**
7,10009,1049,22.29019,114.19685,MIDO APARTMENTS,7/1/1958 0:00,0,5360.1,918.6,6278.7,16,66,26780,0.4,1,1,0,1,0,838326,816811,Eastern,**
9,13605,735,22.2854,114.19096,GORDON HOUSE,6/1/1958 0:00,0,7192.5,322.8,7515.3,16,66,19250,0.3,1,0,0,1,0,837720,816268,Eastern,*
17,8888,1044,22.29734,114.17261,MIRADOR MANSION,7/1/1959 0:00,0,37625,18480,56105,18,65,19500,0.05,1,2,0,1,0,835826,817623,Yau Tsim Mong,***
18,7194,1390,22.30576,114.16911,UNITED MANSION BLOCK A,11/1/1958 0:00,0,7465,1543,9008,16,66,16640,0.2,1,2,1,1,0,835474,818532,Yau Tsim Mong,***
22,10224,978,22.28333,114.1919,GOLDEN COURT,11/1/1958 0:00,0,9535,2377,11912,12,66,35350,0.05,1,0,0,1,0,837816,816026,Eastern,*
23,9280,625,22.28034,114.22397,LAI LAM BUILDING,2/1/1959 0:00,0,2598.8,218,2816.8,11,66,25000,0.2,1,0,0,1,0,841123,815728,Eastern,*
24,10000,598,22.31738,114.17057,WING WAH BUILDING,5/1/1959 0:00,0,5020,4135,9155,12,65,19640,0.2,1,1,1,1,0,835615,819817,Yau Tsim Mong,**
25,9627,590,22.2907,114.19647,CORONET COURT,9/1/1958 0:00,0,12025.8,1436.1,13461.9,15,66,19800,0.4,1,2,0,1,0,838289,816857,Eastern,***
26,8647,636,22.27974,114.22545,LOK KWAN HOUSE,10/1/1958 0:00,0,5867,494,6361,12,66,32000,0.4,1,1,0,1,0,841277,815661,Eastern,**
27,6984,859,22.30045,114.17475,KIMLEY HOUSE,6/1/1985 0:00,34,1466.9,177.1,1644,18,39,15630,0.4,1,0,0,1,0,836050,817944,Yau Tsim Mong,*
28,9069,860,22.30253,114.17505,COMPANION COURT,1/1/1959 0:00,0,3447.2,463.8,3911,10,66,19210,0.4,1,2,0,0,0,836077,818175,Yau Tsim Mong,***
29,10000,550,22.29734,114.17261,MIRADOR MANSION,7/1/1959 0:00,0,37625,18480,56105,18,65,19500,0.05,1,2,0,1,0,835826,817623,Yau Tsim Mong,***
31,8800,725,22.29093,114.20014,MAYLUN APARTMENTS,7/1/1959 0:00,0,19383,1542,20925,18,65,22170,0.05,1,2,0,1,0,838680,816869,Eastern,***
49,13838,831,22.28343,114.19156,TRIUMPH COURT,10/1/1959 0:00,0,7754,795.2,8549.2,11,65,35350,0.05,1,0,0,0,0,837784,816060,Eastern,*
52,11267,1065,22.29,114.20912,MANSION BUILDING,8/1/1960 0:00,0,5809.6,886.4,6696,13,64,26990,0.2,1,1,0,0,0,839585,816796,Eastern,**
53,13597,581,22.28343,114.19156,TRIUMPH COURT,10/1/1959 0:00,0,7754,795.2,8549.2,11,65,35350,0.05,1,0,0,0,0,837784,816060,Eastern,*
56,10561,445,22.31931,114.16136,PEONY HOUSE WEST BLOCK,7/1/1961 0:00,0,11119,1344,12463,12,63,24000,0.05,1,1,0,0,0,834684,820043,Yau Tsim Mong,**
57,10526,684,22.29798,114.17178,HAI PHONG MANSION,11/1/1960 0:00,0,12280.7,2176.9,14457.6,16,64,22000,0.05,1,1,0,1,0,835742,817677,Yau Tsim Mong,**
58,11434,962,22.28816,114.19606,KENT MANSION,8/1/1961 0:00,0,9816,0,9816,13,63,31000,0.3,1,0,0,1,0,838257,816569,Eastern,*
59,11761,670,22.28256,114.19246,PAK LEE BUILDING,3/1/1961 0:00,0,7916.3,1611.6,9527.9,14,64,46250,0.05,1,0,0,1,0,837866,815969,Eastern,*
60,7954,440,22.31931,114.16136,PEONY HOUSE WEST BLOCK,7/1/1961 0:00,0,11119,1344,12463,12,63,24000,0.05,1,1,0,0,0,834684,820043,Yau Tsim Mong,**
62,9333,600,22.30625,114.16771,LEE SHING MANSION,6/1/1961 0:00,0,6159.5,1307.6,7467.1,14,63,24300,0.1,1,2,0,1,0,835323,818580,Yau Tsim Mong,***
67,9590,415,22.28287,114.21294,TAI CHOW HOUSE,10/1/1960 0:00,0,7672.2,131,7803.2,10,64,20580,0.4,1,0,0,1,0,839979,816000,Eastern,*
70,11783,611,22.30141,114.17495,PACIFIC BUILDING,12/1/1961 0:00,0,3970,537.5,4507.5,12,63,19210,0.5,1,0,0,1,0,836073,818052,Yau Tsim Mong,*
72,9484,601,22.32131,114.17054,LUNG MONG BUILDING,1/1/1962 0:00,0,4037.3,306.7,4344,12,63,15000,0.1,1,1,0,1,0,835619,820257,Yau Tsim Mong,**
73,11640,634,22.30114,114.17612,GOLDEN MANSION,7/1/1962 0:00,0,4207.5,844,5051.5,15,62,23130,0.4,1,0,0,0,0,836190,818020,Yau Tsim Mong,*
74,10495,484,22.29229,114.19828,WHARF MANSION,6/1/1962 0:00,0,6580,956,7536,15,62,27490,0.2,1,1,0,1,0,838470,817048,Eastern,**
77,10957,637,22.30114,114.17612,GOLDEN MANSION,7/1/1962 0:00,0,4207.5,844,5051.5,15,62,23130,0.4,1,0,0,0,0,836190,818020,Yau Tsim Mong,*
80,11115,484,22.29229,114.19828,WHARF MANSION,6/1/1962 0:00,0,6580,956,7536,15,62,27490,0.2,1,1,0,1,0,838470,817048,Eastern,**
82,13406,634,22.30114,114.17612,GOLDEN MANSION,7/1/1962 0:00,0,4207.5,844,5051.5,15,62,23130,0.4,1,0,0,0,0,836190,818020,Yau Tsim Mong,*
83,12558,637,22.30114,114.17612,GOLDEN MANSION,7/1/1962 0:00,0,4207.5,844,5051.5,15,62,23130,0.4,1,0,0,0,0,836190,818020,Yau Tsim Mong,*
84,10602,896,22.29611,114.17141,HANCHUNG MANSION,5/1/1962 0:00,0,2955.6,540.9,3496.5,13,62,22000,0.05,1,0,0,1,0,835703,817465,Yau Tsim Mong,*
85,10071,556,22.30141,114.17495,PACIFIC BUILDING,12/1/1961 0:00,0,3970,537.5,4507.5,12,63,19210,0.5,1,0,0,1,0,836073,818052,Yau Tsim Mong,*
86,11292,611,22.30141,114.17495,PACIFIC BUILDING,12/1/1961 0:00,0,3970,537.5,4507.5,12,63,19210,0.5,1,0,0,1,0,836073,818052,Yau Tsim Mong,*
88,11324,574,22.3032,114.16833,WAI ON BUILDING BLOCK A,10/1/1962 0:00,0,5410.4,420.3,5830.7,16,62,21430,0.05,1,0,0,1,0,835386,818246,Yau Tsim Mong,*
91,7471,787,22.28986,114.19555,CONTINENTAL MANSION,10/1/1962 0:00,0,26221.6,3614.2,29835.8,23,62,31000,0.3,1,1,0,1,0,838187,816789,Eastern,**
94,9167,685,22.3032,114.16833,WAI ON BUILDING BLOCK A,10/1/1962 0:00,0,5410.4,420.3,5830.7,16,62,21430,0.05,1,0,0,1,0,835386,818246,Yau Tsim Mong,*
98,8777,900,22.3032,114.16833,WAI ON BUILDING BLOCK A,10/1/1962 0:00,0,5410.4,420.3,5830.7,16,62,21430,0.05,1,0,0,1,0,835386,818246,Yau Tsim Mong,*
99,11324,574,22.3032,114.16833,WAI ON BUILDING BLOCK A,10/1/1962 0:00,0,5410.4,420.3,5830.7,16,62,21430,0.05,1,0,0,1,0,835386,818246,Yau Tsim Mong,*
100,11453,812,22.28986,114.19555,CONTINENTAL MANSION,10/1/1962 0:00,0,26221.6,3614.2,29835.8,23,62,31000,0.3,1,1,0,1,0,838187,816789,Eastern,**
101,9917,605,22.29008,114.19479,SOUTHERN BUILDING,1/1/1963 0:00,0,17271.1,1407.5,18678.6,20,62,18420,0.2,1,1,0,1,0,838112,816787,Eastern,**
108,7056,479,22.312,114.17059,LAI SHING BUILDING,9/1/1963 0:00,0,6126.7,941.3,7068,19,61,15000,0.05,1,1,1,0,0,835623,819226,Yau Tsim Mong,**
109,7744,501,22.29008,114.19479,SOUTHERN BUILDING,1/1/1963 0:00,0,17271.1,1407.5,18678.6,20,62,18420,0.2,1,1,0,1,0,838112,816787,Eastern,**
111,9718,533,22.28986,114.19555,CONTINENTAL MANSION,10/1/1962 0:00,0,26221.6,3614.2,29835.8,23,62,31000,0.3,1,1,0,1,0,838187,816789,Eastern,**
112,9502,442,22.31799,114.17323,WAH LOK BUILDING,5/1/1963 0:00,0,4418.7,264.5,4683.2,15,61,26000,0.4,1,1,0,1,0,835889,819892,Yau Tsim Mong,**
113,8049,441,22.28403,114.22121,TAI CHEONG HOUSE,11/1/1962 0:00,0,7600,599,8199,11,62,15290,0.2,1,0,0,1,0,840856,816143,Eastern,*
114,9670,516,22.28986,114.19555,CONTINENTAL MANSION,10/1/1962 0:00,0,26221.6,3614.2,29835.8,23,62,31000,0.3,1,1,0,1,0,838187,816789,Eastern,**
115,11373,466,22.31738,114.16736,TAK LEI HOUSE,7/1/1977 0:00,15,415.4,266.2,681.6,6,47,14850,0.3,0,0,0,0,0,835292,819821,Yau Tsim Mong,*
117,11200,508,22.29008,114.19479,SOUTHERN BUILDING,1/1/1963 0:00,0,17271.1,1407.5,18678.6,20,62,18420,0.2,1,1,0,1,0,838112,816787,Eastern,**
118,10268,857,22.30263,114.17544,KIU FUNG MANSION,6/1/1963 0:00,0,11975.4,1050,13025.4,16,61,23130,0.4,1,2,0,1,0,836117,818184,Yau Tsim Mong,***
119,9911,907,22.28986,114.19555,CONTINENTAL MANSION,10/1/1962 0:00,0,26221.6,3614.2,29835.8,23,62,31000,0.3,1,1,0,1,0,838187,816789,Eastern,**
120,9248,865,22.30263,114.17544,KIU FUNG MANSION,6/1/1963 0:00,0,11975.4,1050,13025.4,16,61,23130,0.4,1,2,0,1,0,836117,818184,Yau Tsim Mong,***
121,10673,787,22.28986,114.19555,CONTINENTAL MANSION,10/1/1962 0:00,0,26221.6,3614.2,29835.8,23,62,31000,0.3,1,1,0,1,0,838187,816789,Eastern,**
122,9049,652,22.30454,114.17136,CUMBERLAND HOUSE,8/1/1963 0:00,0,1779.7,1796.7,3576.4,11,61,17210,0.05,1,2,0,1,0,835688,818396,Yau Tsim Mong,***
123,8419,582,22.27749,114.22987,HO KING BUILDING,10/1/1979 0:00,60,2288.6,910.3,3198.9,22,45,32100,0.2,1,0,0,0,0,841728,815405,Eastern,*
125,13737,495,22.31863,114.17052,KWOK WING BUILDING,8/1/1964 0:00,0,1723.1,516.3,2239.4,12,60,16500,0.05,1,0,1,1,0,835617,819957,Yau Tsim Mong,*
127,8305,590,22.32334,114.16593,LEE TAI BUILDING,12/1/1963 0:00,0,4630.4,378.4,5008.8,15,61,16200,0.2,1,1,1,0,0,835142,820479,Yau Tsim Mong,**
131,8652,460,22.29215,114.19758,GAIN YU BUILDING,5/1/1988 0:00,60,3540.6,1484.2,5024.8,23,36,27490,0.3,1,0,0,1,0,838402,817025,Eastern,*
137,8029,685,22.3022,114.1748,UNIVERSAL MANSION,8/1/1962 0:00,0,12056.7,1157,13213.7,11,62,19210,0.4,1,0,0,1,0,836055,818142,Yau Tsim Mong,*
138,7547,689,22.3206,114.16169,HING WONG MANSION,1/1/1964 0:00,0,21780,1909,23689,16,61,18630,0.3,1,2,0,1,0,834707,820165,Yau Tsim Mong,***
139,10827,423,22.31359,114.17105,TUNG YU BUILDING,1/1/1979 0:00,69,2731.1,313.4,3044.5,24,46,12490,0.05,1,0,0,1,0,835669,819401,Yau Tsim Mong,*
140,9676,618,22.29026,114.19506,NAM TIN BUILDING,12/1/1963 0:00,0,6997.1,1575,8572.1,20,61,18420,0.2,1,1,0,1,0,838142,816813,Eastern,**
143,9780,501,22.27768,114.2299,KAM WA BUILDING,6/1/1964 0:00,0,4573.4,1200.8,5774.2,14,60,32100,0.1,1,0,0,1,0,841729,815434,Eastern,*
144,9404,638,22.31777,114.17308,NGAI HING MANSION,6/1/1964 0:00,0,17074.9,1403.3,18478.2,17,60,26000,0.5,1,2,0,1,0,835877,819861,Yau Tsim Mong,***
154,10152,916,22.30095,114.17382,HOLLY MANSION,6/1/1964 0:00,0,2472.5,676,3148.5,10,60,23660,0.4,1,0,0,1,0,835954,817992,Yau Tsim Mong,*
164,8193,620,22.32328,114.16545,LEE SHING BUILDING,3/1/1964 0:00,0,3836,275,4111,16,61,16200,0.3,0,0,1,0,0,0,0,Yau Tsim Mong, 
165,8168,404,22.30364,114.16905,HANG FOOK BUILDING,2/1/1979 0:00,45,1727.6,630.4,2358,17,46,23000,0.2,1,0,0,1,0,835459,818297,Yau Tsim Mong,*
166,6134,489,22.30625,114.16771,LEE SHING MANSION,6/1/1961 0:00,0,6159.5,1307.6,7467.1,14,63,24300,0.1,1,2,0,1,0,835323,818580,Yau Tsim Mong,***
167,10000,598,22.29026,114.19506,NAM TIN BUILDING,12/1/1963 0:00,0,6997.1,1575,8572.1,20,61,18420,0.2,1,1,0,1,0,838142,816813,Eastern,**
176,9577,710,22.26172,114.23388,MAN WAH BUILDING,3/1/1971 0:00,0,860.7,248,1108.7,6,54,24000,0.5,0,0,0,0,0,842137,813670,Eastern,*
191,8000,400,22.32303,114.16142,CHUNG YING BUILDING,7/1/1965 0:00,0,21569.8,2203.1,23772.9,15,59,16750,0.6,1,2,0,1,0,834674,820446,Yau Tsim Mong,***
201,11544,693,22.29625,114.17197,ALPHA HOUSE,10/1/1964 0:00,0,9227.8,2881.9,12109.7,19,60,22000,0.05,1,0,0,1,0,835764,817482,Yau Tsim Mong,*
205,15221,722,22.29625,114.17197,ALPHA HOUSE,10/1/1964 0:00,0,9227.8,2881.9,12109.7,19,60,22000,0.05,1,0,0,1,0,835764,817482,Yau Tsim Mong,*
207,10833,720,22.30783,114.1672,MAN WAI BUILDING,7/1/1965 0:00,0,29034.3,1814.9,30849.2,19,59,21290,0.3,0,2,0,0,0,835279,818767,Yau Tsim Mong,***
208,10344,464,22.31389,114.16939,SHANGHAI MANSION,8/1/1965 0:00,0,4930.2,507.4,5437.6,11,59,18500,0.05,1,0,1,1,0,835497,819434,Yau Tsim Mong,*
210,10000,565,22.30752,114.16712,MAN YUEN BUILDING,10/1/1964 0:00,0,28838,2451.7,31289.7,19,60,16480,0.2,0,2,0,0,0,835270,818733,Yau Tsim Mong,***
211,8421,665,22.26172,114.23388,MAN WAH BUILDING,3/1/1971 0:00,0,860.7,248,1108.7,6,54,24000,0.5,0,0,0,0,0,842137,813670,Eastern,*
212,8333,834,22.30556,114.16988,SIU HING BUILDING,12/1/1964 0:00,0,4111,467,4578,16,60,16640,0.1,1,1,1,1,0,835545,818508,Yau Tsim Mong,**
217,9819,611,22.27922,114.22577,KWONG YICK BUILDING,6/1/1961 0:00,0,1899.5,519.8,2419.3,9,63,32000,0.4,0,1,0,1,0,841308,815603,Eastern,**
220,11422,471,22.28869,114.19358,CHUNG NAM MANSION,8/1/1965 0:00,0,4942.3,585.5,5527.8,18,59,37500,0.05,1,0,0,1,0,837985,816640,Eastern,*
223,13109,595,22.28869,114.19358,CHUNG NAM MANSION,8/1/1965 0:00,0,4942.3,585.5,5527.8,18,59,37500,0.05,1,0,0,1,0,837985,816640,Eastern,*
224,14276,629,22.29177,114.19659,GARLAND HOUSE,4/1/1965 0:00,0,1217,263.7,1480.7,12,59,27490,0.4,1,0,0,1,0,838299,816978,Eastern,*
227,11989,583,22.3061,114.16743,YUE TAK BUILDING,2/1/1965 0:00,0,3294.4,371,3665.4,15,60,19900,0.1,1,1,0,1,0,835295,818572,Yau Tsim Mong,**
232,8301,518,22.29158,114.19835,YEN DACK BUILDING,3/1/1965 0:00,0,14404,971,15375,20,60,17720,0.2,1,2,1,1,0,838505,816972,Eastern,***
233,9434,920,22.32143,114.17114,KWOK CHAI BUILDING,1/1/1965 0:00,0,3028,1153,4181,18,60,20500,0.1,1,1,0,1,0,835675,820273,Yau Tsim Mong,**
238,9411,850,22.30783,114.1672,MAN WAI BUILDING,7/1/1965 0:00,0,29034.3,1814.9,30849.2,19,59,21290,0.3,0,2,0,0,0,835279,818767,Yau Tsim Mong,***
243,11360,544,22.28277,114.19264,KIU HING MANSION,1/1/1966 0:00,0,27749.8,6001.3,33751.1,27,59,46250,0.1,1,0,0,1,0,837896,815991,Eastern,*
249,9536,733,22.29747,114.17181,HARILELA MANSION,12/1/1965 0:00,0,4275.5,4315,8590.5,18,59,22000,0.05,1,1,0,1,0,835747,817616,Yau Tsim Mong,**
250,8761,525,22.32602,114.16105,BOUNDARY BUILDING,3/1/1966 0:00,0,7949.9,705.7,8655.6,15,59,18920,0.5,1,0,0,1,0,834642,820773,Yau Tsim Mong,*
252,10816,453,22.28277,114.19264,KIU HING MANSION,1/1/1966 0:00,0,27749.8,6001.3,33751.1,27,59,46250,0.1,1,0,0,1,0,837896,815991,Eastern,*
262,8807,545,22.28922,114.20045,KAM PING MANSION BLOCK D,1/1/1966 0:00,0,24710.3,2393.6,27103.9,15,59,13810,0.2,1,0,0,0,0,0,0,Eastern, 
264,13077,757,22.28277,114.19264,KIU HING MANSION,1/1/1966 0:00,0,27749.8,6001.3,33751.1,27,59,46250,0.1,1,0,0,1,0,837896,815991,Eastern,*
268,12309,853,22.28277,114.19264,KIU HING MANSION,1/1/1966 0:00,0,27749.8,6001.3,33751.1,27,59,46250,0.1,1,0,0,1,0,837896,815991,Eastern,*
269,11149,879,22.28277,114.19264,KIU HING MANSION,1/1/1966 0:00,0,27749.8,6001.3,33751.1,27,59,46250,0.1,1,0,0,1,0,837896,815991,Eastern,*
272,18924,465,22.28277,114.19264,KIU HING MANSION,1/1/1966 0:00,0,27749.8,6001.3,33751.1,27,59,46250,0.1,1,0,0,1,0,837896,815991,Eastern,*
273,13068,880,22.28277,114.19264,KIU HING MANSION,1/1/1966 0:00,0,27749.8,6001.3,33751.1,27,59,46250,0.1,1,0,0,1,0,837896,815991,Eastern,*
277,12804,781,22.28277,114.19264,KIU HING MANSION,1/1/1966 0:00,0,27749.8,6001.3,33751.1,27,59,46250,0.1,1,0,0,1,0,837896,815991,Eastern,*
281,13677,658,22.28277,114.19264,KIU HING MANSION,1/1/1966 0:00,0,27749.8,6001.3,33751.1,27,59,46250,0.1,1,0,0,1,0,837896,815991,Eastern,*
287,15011,453,22.28277,114.19264,KIU HING MANSION,1/1/1966 0:00,0,27749.8,6001.3,33751.1,27,59,46250,0.1,1,0,0,1,0,837896,815991,Eastern,*
289,12164,559,22.28277,114.19264,KIU HING MANSION,1/1/1966 0:00,0,27749.8,6001.3,33751.1,27,59,46250,0.1,1,0,0,1,0,837896,815991,Eastern,*
291,11090,440,22.28912,114.19399,RIALTO MANSION,4/1/1966 0:00,0,10400,2724.7,13124.7,18,58,29000,0.05,1,0,0,1,0,838028,816682,Eastern,*
299,8898,708,22.28585,114.19092,MING HING BUILDING,1/1/1966 0:00,0,3519.6,611.7,4131.3,13,59,32890,0.4,1,0,0,0,0,0,0,Eastern, 
301,10958,438,22.32232,114.16147,CHUNG WO BUILDING,1/1/1966 0:00,0,19702.1,1403.2,21105.3,15,59,17630,0.5,1,2,0,1,0,834678,820367,Yau Tsim Mong,***
302,12121,495,22.29025,114.197,TSING WAN BUILDING,4/1/1966 0:00,0,4268.6,719.3,4987.9,23,58,26780,0.4,1,0,0,1,0,838337,816823,Eastern,*
304,14548,708,22.28585,114.19092,MING HING BUILDING,1/1/1966 0:00,0,3519.6,611.7,4131.3,13,59,32890,0.4,1,0,0,0,0,0,0,Eastern, 
307,13274,565,22.28277,114.19264,KIU HING MANSION,1/1/1966 0:00,0,27749.8,6001.3,33751.1,27,59,46250,0.1,1,0,0,1,0,837896,815991,Eastern,*
309,12846,520,22.28585,114.19092,MING HING BUILDING,1/1/1966 0:00,0,3519.6,611.7,4131.3,13,59,32890,0.4,1,0,0,0,0,0,0,Eastern, 
310,13448,519,22.28277,114.19264,KIU HING MANSION,1/1/1966 0:00,0,27749.8,6001.3,33751.1,27,59,46250,0.1,1,0,0,1,0,837896,815991,Eastern,*
316,7431,545,22.28922,114.20045,KAM PING MANSION BLOCK D,1/1/1966 0:00,0,24710.3,2393.6,27103.9,15,59,13810,0.2,1,0,0,0,0,0,0,Eastern, 
317,9266,545,22.32483,114.17177,TAI WAH MANSION,5/1/1966 0:00,0,2635,210,2845,15,58,38750,0.3,1,0,0,0,0,835742,820640,Yau Tsim Mong,*
322,12941,425,22.28912,114.19399,RIALTO MANSION,4/1/1966 0:00,0,10400,2724.7,13124.7,18,58,29000,0.05,1,0,0,1,0,838028,816682,Eastern,*
323,15317,645,22.28277,114.19264,KIU HING MANSION,1/1/1966 0:00,0,27749.8,6001.3,33751.1,27,59,46250,0.1,1,0,0,1,0,837896,815991,Eastern,*
325,10640,874,22.32499,114.17283,NO SPECIFIC NAME,5/1/1966 0:00,0,2682.9,214.9,2897.8,15,58,38750,0.4,0,0,0,1,0,0,0,Yau Tsim Mong, 
328,8254,424,22.28939,114.20036,KAM PING MANSION BLOCK C,1/1/1966 0:00,0,24710.3,2393.6,27103.9,15,59,13810,0.1,1,2,0,0,0,838688,816720,Eastern,***
332,11151,556,22.31684,114.16961,SUN HING BUILDING,2/1/1966 0:00,0,20128.4,24444.8,44573.2,27,59,13050,0.3,1,2,1,0,0,835520,819760,Yau Tsim Mong,***
333,9069,419,22.32287,114.1605,CHUNG KIN BUILDING,2/1/1966 0:00,0,14798,1071,15869,15,59,17630,0.6,1,2,0,1,0,834581,820406,Yau Tsim Mong,***
339,8333,468,22.32232,114.16147,CHUNG WO BUILDING,1/1/1966 0:00,0,19702.1,1403.2,21105.3,15,59,17630,0.5,1,2,0,1,0,834678,820367,Yau Tsim Mong,***
344,12548,518,22.28277,114.19264,KIU HING MANSION,1/1/1966 0:00,0,27749.8,6001.3,33751.1,27,59,46250,0.1,1,0,0,1,0,837896,815991,Eastern,*
350,11676,668,22.28546,114.19241,WING HING BUILDING,1/1/1966 0:00,0,2898.8,634.3,3533.1,11,59,19250,0.3,1,0,0,1,0,837869,816282,Eastern,*
351,10829,482,22.32231,114.16014,CHUNG SING BUILDING,6/1/1966 0:00,0,8748.2,601.1,9349.3,15,58,19000,0.4,1,1,0,1,0,834548,820370,Yau Tsim Mong,**
352,12895,411,22.28496,114.19118,MAYSON GARDEN BUILDING,1/1/1973 0:00,0,13331.7,2913.2,16244.9,24,52,23660,0.2,1,0,0,0,0,837743,816232,Eastern,*
353,9222,540,22.31801,114.16659,YUEN FAT BUILDING,10/1/1965 0:00,0,17417.7,1051.3,18469,23,59,14000,0.3,1,2,0,1,0,835197,819887,Yau Tsim Mong,***
354,8441,462,22.28912,114.19399,RIALTO MANSION,4/1/1966 0:00,0,10400,2724.7,13124.7,18,58,29000,0.05,1,0,0,1,0,838028,816682,Eastern,*
358,12121,462,22.28912,114.19399,RIALTO MANSION,4/1/1966 0:00,0,10400,2724.7,13124.7,18,58,29000,0.05,1,0,0,1,0,838028,816682,Eastern,*
360,12682,425,22.28912,114.19399,RIALTO MANSION,4/1/1966 0:00,0,10400,2724.7,13124.7,18,58,29000,0.05,1,0,0,1,0,838028,816682,Eastern,*
361,12279,544,22.28277,114.19264,KIU HING MANSION,1/1/1966 0:00,0,27749.8,6001.3,33751.1,27,59,46250,0.1,1,0,0,1,0,837896,815991,Eastern,*
362,8750,400,22.32232,114.16147,CHUNG WO BUILDING,1/1/1966 0:00,0,19702.1,1403.2,21105.3,15,59,17630,0.5,1,2,0,1,0,834678,820367,Yau Tsim Mong,***
365,8998,589,22.28658,114.21101,CHUNG HING MANSION,10/1/1965 0:00,0,18842.5,1166.4,20008.9,25,59,14000,0.2,1,0,0,1,0,839766,816409,Eastern,*
369,9696,495,22.29025,114.197,TSING WAN BUILDING,4/1/1966 0:00,0,4268.6,719.3,4987.9,23,58,26780,0.4,1,0,0,1,0,838337,816823,Eastern,*
370,11074,540,22.28277,114.19264,KIU HING MANSION,1/1/1966 0:00,0,27749.8,6001.3,33751.1,27,59,46250,0.1,1,0,0,1,0,837896,815991,Eastern,*
373,9523,462,22.28912,114.19399,RIALTO MANSION,4/1/1966 0:00,0,10400,2724.7,13124.7,18,58,29000,0.05,1,0,0,1,0,838028,816682,Eastern,*
384,10586,614,22.28804,114.19296,UNITED BUILDING,4/1/1967 0:00,0,12069.6,2877.5,14947.1,23,57,23000,0.05,1,0,0,1,0,837934,816564,Eastern,*
385,11000,510,22.30711,114.16601,MAN KING BUILDING,7/1/1967 0:00,0,33293.4,1856.9,35150.3,19,57,19900,0.1,0,1,0,0,0,835144,818690,Yau Tsim Mong,**
401,10611,801,22.28804,114.19296,UNITED BUILDING,4/1/1967 0:00,0,12069.6,2877.5,14947.1,23,57,23000,0.05,1,0,0,1,0,837934,816564,Eastern,*
406,9728,553,22.32143,114.16866,CHUN YEE BUILDING,11/1/1966 0:00,0,4060,2098,6158,18,58,16490,0.05,1,1,1,1,0,835422,820269,Yau Tsim Mong,**
408,9638,415,22.27773,114.2297,KAM WAI BUILDING,9/1/1966 0:00,0,3333.3,872.7,4206,17,58,32100,0.1,1,0,0,1,0,841712,815437,Eastern,*
409,9575,400,22.27946,114.22607,METRO MANSION,4/1/1967 0:00,10,5895.8,448,6343.8,15,57,23780,0.3,1,0,0,1,0,841331,815623,Eastern,*
410,8540,562,22.32374,114.16549,NAM FUNG BUILDING,10/1/1966 0:00,0,2362.8,424.4,2787.2,15,58,19660,0.3,0,0,0,1,0,0,0,Yau Tsim Mong, 
412,11585,801,22.28804,114.19296,UNITED BUILDING,4/1/1967 0:00,0,12069.6,2877.5,14947.1,23,57,23000,0.05,1,0,0,1,0,837934,816564,Eastern,*
421,9647,765,22.32143,114.16866,CHUN YEE BUILDING,11/1/1966 0:00,0,4060,2098,6158,18,58,16490,0.05,1,1,1,1,0,835422,820269,Yau Tsim Mong,**
423,9647,765,22.32143,114.16866,CHUN YEE BUILDING,11/1/1966 0:00,0,4060,2098,6158,18,58,16490,0.05,1,1,1,1,0,835422,820269,Yau Tsim Mong,**
426,11009,436,22.30736,114.17171,EXCELSIOR BUILDING,5/1/1967 0:00,0,2848.7,909,3757.7,14,57,17800,0.2,1,0,1,1,0,835734,818709,Yau Tsim Mong,*
428,10632,553,22.32143,114.16866,CHUN YEE BUILDING,11/1/1966 0:00,0,4060,2098,6158,18,58,16490,0.05,1,1,1,1,0,835422,820269,Yau Tsim Mong,**
430,10632,553,22.32143,114.16866,CHUN YEE BUILDING,11/1/1966 0:00,0,4060,2098,6158,18,58,16490,0.05,1,1,1,1,0,835422,820269,Yau Tsim Mong,**
433,13138,548,22.29038,114.19487,LUEN WO APARTMENTS,2/1/1962 0:00,0,9207.8,706.7,9914.5,13,63,18420,0.2,1,1,0,1,0,838123,816831,Eastern,**
451,10367,463,22.31884,114.16785,NEW ASIA BUILDING,2/1/1968 0:00,0,2338.1,296.3,2634.4,14,57,13000,0.05,1,0,1,1,0,835339,819981,Yau Tsim Mong,*
454,12364,516,22.31986,114.16898,WINNER MANSION,8/1/1968 0:00,0,4802.4,2389.5,7191.9,17,56,17850,0.05,1,0,1,0,0,0,0,Yau Tsim Mong, 
463,10097,515,22.31337,114.17083,WING KIU BUILDING,2/1/1969 0:00,0,2959.1,2173.5,5132.6,17,56,12490,0.05,1,0,0,1,0,835648,819370,Yau Tsim Mong,*
493,9177,523,22.31343,114.17031,BELL HOUSE,4/1/1970 0:00,0,19002.2,5547.8,24550,21,54,21840,0.05,1,1,1,1,0,835596,819384,Yau Tsim Mong,**
520,15217,460,22.2891,114.20014,MING YUEN MANSIONS PHASE 1 BLOCK A,12/1/1968 0:00,0,30140.3,0,30140.3,22,56,36000,0.2,1,0,0,0,0,838664,816694,Eastern,*
536,9825,631,22.30826,114.17108,HONOUR HOUSE,11/1/1969 0:00,0,7512.4,2348.1,9860.5,19,55,16400,0.3,1,2,0,1,0,835672,818818,Yau Tsim Mong,***
547,11260,460,22.2891,114.20014,MING YUEN MANSIONS PHASE 1 BLOCK A,12/1/1968 0:00,0,30140.3,0,30140.3,22,56,36000,0.2,1,0,0,0,0,838664,816694,Eastern,*
554,8571,406,22.32285,114.16014,CHUNG YEW BUILDING,1/1/1970 0:00,0,19084.1,1433.6,20517.7,15,55,16500,0.5,1,1,0,1,0,834553,820425,Yau Tsim Mong,**
562,5664,632,22.32309,114.16817,FOON LOK BUILDING,10/1/1979 0:00,15,634.1,304,938.1,6,45,17490,0.2,0,0,0,0,0,835370,820453,Yau Tsim Mong,*
564,10402,671,22.2824,114.19234,HUNG ON BUILDING,7/1/1971 0:00,0,7008.8,989.8,7998.6,21,53,46250,0.05,1,0,0,0,0,837850,815947,Eastern,*
573,12686,670,22.28637,114.19122,HOI SHING BUILDING,8/1/1971 0:00,0,4636.5,426.9,5063.4,20,53,32890,0.3,1,0,0,1,0,837749,816391,Eastern,*
581,8612,447,22.27749,114.22987,HO KING BUILDING,10/1/1979 0:00,60,2288.6,910.3,3198.9,22,45,32100,0.2,1,0,0,0,0,841728,815405,Eastern,*
582,12686,670,22.28637,114.19122,HOI SHING BUILDING,8/1/1971 0:00,0,4636.5,426.9,5063.4,20,53,32890,0.3,1,0,0,1,0,837749,816391,Eastern,*
584,8893,506,22.31354,114.16945,TAK YUE MANSION,1/1/1971 0:00,0,2106.5,1785.5,3892,13,54,21840,0.05,1,0,1,1,0,835505,819395,Yau Tsim Mong,*
590,12745,612,22.28917,114.19512,GOLDEN CASTLE MANSION,3/1/1972 0:00,0,7241,739.1,7980.1,23,53,31000,0.1,1,0,0,0,0,838142,816699,Eastern,*
602,12739,522,22.28856,114.19347,KING'S LODGE,3/1/1972 0:00,0,1988.6,180.3,2168.9,15,53,37500,0.05,1,1,0,1,0,837978,816633,Eastern,**
603,16164,704,22.26336,114.24712,BIK TSUI HOUSE,3/1/1990 0:00,0,19281,36,19317,34,35,24000,1.5,1,0,0,0,0,843510,813838,Eastern,*
627,14052,612,22.28917,114.19512,GOLDEN CASTLE MANSION,3/1/1972 0:00,0,7241,739.1,7980.1,23,53,31000,0.1,1,0,0,0,0,838142,816699,Eastern,*
640,13122,823,22.28444,114.21406,BO FUNG GARDEN BLOCK A,8/1/1972 0:00,0,24311.1,241.1,24552.2,28,52,23310,0.05,1,0,0,0,0,840098,816182,Eastern,*
641,15376,584,22.28917,114.19512,GOLDEN CASTLE MANSION,3/1/1972 0:00,0,7241,739.1,7980.1,23,53,31000,0.1,1,0,0,0,0,838142,816699,Eastern,*
643,12784,704,22.26336,114.24712,BIK TSUI HOUSE,3/1/1990 0:00,0,19281,36,19317,34,35,24000,1.5,1,0,0,0,0,843510,813838,Eastern,*
648,11070,822,22.28446,114.21456,BO FUNG GARDEN BLOCK C,8/1/1972 0:00,0,24311.1,241.1,24552.2,28,52,23310,0.05,1,0,0,0,0,840150,816183,Eastern,*
649,13955,584,22.28896,114.19516,GOLDEN CASTLE MANSION,3/1/1972 0:00,0,7241,739.1,7980.1,23,53,31000,0.1,1,0,0,0,0,838151,816676,Eastern,*
660,12778,493,22.30165,114.1759,CREATIVE MANSION,5/1/1972 0:00,0,1658.3,187.3,1845.6,16,52,23130,0.5,1,0,0,1,0,836166,818078,Yau Tsim Mong,*
663,13467,496,22.29685,114.17072,ASHLEY MANSION,12/1/1971 0:00,0,2397.7,1954.2,4351.9,18,53,29820,0.2,1,0,0,1,0,835628,817545,Yau Tsim Mong,*
711,10920,467,22.27946,114.22607,METRO MANSION,4/1/1967 0:00,10,5895.8,448,6343.8,15,57,23780,0.3,1,0,0,1,0,841331,815623,Eastern,*
760,13621,602,22.30351,114.1729,HO ON MANSION,9/1/1973 0:00,0,6966.5,440.6,7407.1,17,51,14150,0.2,1,0,0,1,0,835857,818287,Yau Tsim Mong,*
781,11671,753,22.30351,114.1729,HO ON MANSION,9/1/1973 0:00,0,6966.5,440.6,7407.1,17,51,14150,0.2,1,0,0,1,0,835857,818287,Yau Tsim Mong,*
784,12551,588,22.28675,114.19243,FOOK LEE BUILDING,6/1/1973 0:00,0,2449.5,1896.6,4346.1,22,51,28800,0.2,1,0,0,1,0,837868,816435,Eastern,*
792,11022,753,22.30351,114.1729,HO ON MANSION,9/1/1973 0:00,0,6966.5,440.6,7407.1,17,51,14150,0.2,1,0,0,1,0,835857,818287,Yau Tsim Mong,*
806,9574,470,22.2906,114.19947,METROPOLE BUILDING - PODIUM,8/1/1974 0:00,0,93958.5,23221.3,117179.8,2,50,17500,0.1,1,2,0,1,1,838575,816868,Eastern,***
809,8196,610,22.2906,114.19947,METROPOLE BUILDING - PODIUM,8/1/1974 0:00,0,93958.5,23221.3,117179.8,2,50,17500,0.1,1,2,0,1,1,838575,816868,Eastern,***
812,11585,820,22.30266,114.17415,KWOK KWONG HOUSE,8/1/1973 0:00,0,1967.8,303.8,2271.6,12,51,23660,0.3,1,0,0,1,0,835987,818190,Yau Tsim Mong,*
832,12853,778,22.30045,114.17475,KIMLEY HOUSE,6/1/1985 0:00,34,1466.9,177.1,1644,18,39,15630,0.4,1,0,0,1,0,836050,817944,Yau Tsim Mong,*
838,21590,440,22.28496,114.19118,MAYSON GARDEN BUILDING,1/1/1973 0:00,0,13331.7,2913.2,16244.9,24,52,23660,0.2,1,0,0,0,0,837743,816232,Eastern,*
845,9511,450,22.2906,114.19947,METROPOLE BUILDING - PODIUM,8/1/1974 0:00,0,93958.5,23221.3,117179.8,2,50,17500,0.1,1,2,0,1,1,838575,816868,Eastern,***
847,8131,578,22.2906,114.19947,METROPOLE BUILDING - PODIUM,8/1/1974 0:00,0,93958.5,23221.3,117179.8,2,50,17500,0.1,1,2,0,1,1,838575,816868,Eastern,***
853,14155,592,22.28496,114.19118,MAYSON GARDEN BUILDING,1/1/1973 0:00,0,13331.7,2913.2,16244.9,24,52,23660,0.2,1,0,0,0,0,837743,816232,Eastern,*
868,9615,520,22.2906,114.19947,METROPOLE BUILDING - PODIUM,8/1/1974 0:00,0,93958.5,23221.3,117179.8,2,50,17500,0.1,1,2,0,1,1,838575,816868,Eastern,***
871,11184,532,22.2906,114.19947,METROPOLE BUILDING - PODIUM,8/1/1974 0:00,0,93958.5,23221.3,117179.8,2,50,17500,0.1,1,2,0,1,1,838575,816868,Eastern,***
874,8766,673,22.2906,114.19947,METROPOLE BUILDING - PODIUM,8/1/1974 0:00,0,93958.5,23221.3,117179.8,2,50,17500,0.1,1,2,0,1,1,838575,816868,Eastern,***
875,12804,820,22.30266,114.17415,KWOK KWONG HOUSE,8/1/1973 0:00,0,1967.8,303.8,2271.6,12,51,23660,0.3,1,0,0,1,0,835987,818190,Yau Tsim Mong,*
883,10088,565,22.3233,114.16882,COSMOPOLITAN CENTRE (ALLIED PLAZA UNDER),7/1/1973 0:00,0,19363.1,10609.2,29972.3,14,51,26000,0.05,1,2,0,1,0,835445,820483,Yau Tsim Mong,***
885,10759,474,22.2906,114.19947,METROPOLE BUILDING - PODIUM,8/1/1974 0:00,0,93958.5,23221.3,117179.8,2,50,17500,0.1,1,2,0,1,1,838575,816868,Eastern,***
890,11151,556,22.29012,114.19647,HANG YING BUILDING,7/1/1973 0:00,0,9455,5066.8,14521.8,21,51,26250,0.4,1,0,0,1,0,838282,816811,Eastern,*
912,9770,1003,22.28647,114.19316,COMFORT GARDENS,11/1/1974 0:00,0,18801.8,1600.9,20402.7,25,50,59160,0.2,0,0,0,0,0,837945,816399,Eastern,*
913,12674,718,22.28968,114.20754,BRAEMAR TERRACE FLAT H,8/1/1974 0:00,0,21042.8,28,21070.8,15,50,25000,0.2,0,0,0,0,0,0,0,Eastern, 
943,11942,628,22.28669,114.19078,KAM TAO BLDG/ HOI TAO BLDG / NGAN TAO BLDG - PODIUM,12/1/1973 0:00,0,27719.3,2785.5,30504.8,4,51,41650,0.4,1,0,0,1,0,837686,816431,Eastern,*
945,14010,728,22.28968,114.20771,BRAEMAR TERRACE FLAT D,8/1/1974 0:00,0,21042.8,28,21070.8,15,50,25000,0.2,0,0,0,0,0,839447,816753,Eastern,*
950,10161,992,22.28642,114.19341,COMFORT GARDENS,11/1/1974 0:00,0,18801.8,1600.9,20402.7,28,50,59160,0.2,1,0,0,0,0,837978,816386,Eastern,*
952,11822,845,22.28669,114.19078,KAM TAO BLDG/ HOI TAO BLDG / NGAN TAO BLDG - PODIUM,12/1/1973 0:00,0,27719.3,2785.5,30504.8,4,51,41650,0.4,1,0,0,1,0,837686,816431,Eastern,*
957,14038,775,22.29083,114.20406,KING'S WAY MANSION,3/1/1974 0:00,0,3644.7,0,3644.7,18,51,34910,0.3,1,0,0,1,0,839067,816888,Eastern,*
961,14614,609,22.28669,114.19078,KAM TAO BLDG/ HOI TAO BLDG / NGAN TAO BLDG - PODIUM,12/1/1973 0:00,0,27719.3,2785.5,30504.8,4,51,41650,0.4,1,0,0,1,0,837686,816431,Eastern,*
978,10574,435,22.30129,114.17371,LOK FUN MANSION,11/1/1973 0:00,0,2554.6,290.7,2845.3,14,51,23660,0.4,1,0,0,1,0,835941,818037,Yau Tsim Mong,*
980,12093,554,22.28939,114.19708,FOK WAH MANSION,7/1/1974 0:00,0,1811.4,156.6,1968,19,50,40500,0.5,1,0,0,0,0,838349,816716,Eastern,*
985,11838,718,22.28968,114.20754,BRAEMAR TERRACE FLAT H,8/1/1974 0:00,0,21042.8,28,21070.8,15,50,25000,0.2,0,0,0,0,0,0,0,Eastern, 
999,12599,554,22.28939,114.19708,FOK WAH MANSION,7/1/1974 0:00,0,1811.4,156.6,1968,19,50,40500,0.5,1,0,0,0,0,838349,816716,Eastern,*
1000,16713,718,22.28968,114.20771,BRAEMAR TERRACE FLAT D,8/1/1974 0:00,0,21042.8,28,21070.8,15,50,25000,0.2,0,0,0,0,0,839447,816753,Eastern,*
1006,10392,433,22.32097,114.17115,MONGKOK BUILDING,10/1/1973 0:00,0,3601.9,1927.4,5529.3,22,51,20000,0.1,1,0,1,1,0,835676,820223,Yau Tsim Mong,*
1012,11485,653,22.28955,114.19496,NORTH POINT CENTRE (WITH CAR PARK),5/1/1974 0:00,0,17940.5,6240.7,24181.2,28,50,31000,0.1,1,0,0,0,0,838130,816736,Eastern,*
1013,9647,653,22.28974,114.19512,NORTH POINT CENTRE (WITH CAR PARK),5/1/1974 0:00,0,17940.5,6240.7,24181.2,28,50,31000,0.2,1,0,0,1,0,838151,816758,Eastern,*
1017,13176,425,22.32209,114.16111,TAI KWEI BUILDING,6/1/1974 0:00,0,5284.2,1707,6991.2,14,50,17630,0.5,1,0,0,1,1,834644,820343,Yau Tsim Mong,*
1018,14598,548,22.27821,114.22602,HONG WAH MANSION - PODIUM,11/1/1985 0:00,400,14087.2,2118.8,16206,1,39,34250,0.4,1,0,0,1,0,841321,815474,Eastern,*
1019,13537,554,22.28939,114.19708,FOK WAH MANSION,7/1/1974 0:00,0,1811.4,156.6,1968,19,50,40500,0.5,1,0,0,0,0,838349,816716,Eastern,*
1024,12118,609,22.28669,114.19078,KAM TAO BLDG/ HOI TAO BLDG / NGAN TAO BLDG - PODIUM,12/1/1973 0:00,0,27719.3,2785.5,30504.8,4,51,41650,0.4,1,0,0,1,0,837686,816431,Eastern,*
1028,11278,798,22.28951,114.19518,NORTH POINT CENTRE (WITH CAR PARK),5/1/1974 0:00,0,17940.5,6240.7,24181.2,28,50,31000,0.1,1,0,0,0,0,838156,816736,Eastern,*
1048,10682,674,22.28943,114.19397,WAH HOI MANSION - PODIUM,1/1/1975 0:00,0,12445.1,2490.9,14936,2,50,29000,0.1,1,0,0,1,0,838018,816708,Eastern,*
1049,12092,521,22.30315,114.17334,SOVEREIGN MANSION,6/1/1975 0:00,0,2796.6,586.7,3383.3,18,49,23660,0.3,1,0,0,0,0,835903,818250,Yau Tsim Mong,*
1050,10909,715,22.29115,114.20124,KING'S TOWERS BLOCK A,12/1/1974 0:00,0,12671.2,5613,18284.2,26,50,30000,0.05,1,0,0,0,0,838771,816920,Eastern,*
1054,5948,501,22.29858,114.17529,PO CHEONG COMMERCIAL BUILDING,12/1/1990 0:00,0,0,1739.6,1739.6,17,34,22480,0.1,1,0,0,1,0,0,0,Yau Tsim Mong, 
1060,10682,674,22.28943,114.19397,WAH HOI MANSION - PODIUM,1/1/1975 0:00,0,12445.1,2490.9,14936,2,50,29000,0.1,1,0,0,1,0,838018,816708,Eastern,*
1066,11202,848,22.28533,114.21309,WESTLANDS GARDENS BLOCK D,3/1/1975 0:00,0,57679.8,3154.3,60834.1,30,50,52990,0.2,1,0,0,0,0,839995,816264,Eastern,*
1070,12304,894,22.28507,114.2128,WESTLANDS GARDENS BLOCK B,3/1/1975 0:00,0,57679.8,3154.3,60834.1,30,50,52990,0.3,1,0,0,0,0,839965,816248,Eastern,*
1085,14648,512,22.30315,114.17334,SOVEREIGN MANSION,6/1/1975 0:00,0,2796.6,586.7,3383.3,18,49,23660,0.3,1,0,0,0,0,835903,818250,Yau Tsim Mong,*
1088,11339,545,22.2752,114.23108,BRILLIANT COURT,4/1/1975 0:00,0,4535,0,4535,26,49,17960,0.6,1,0,0,1,0,841850,815153,Eastern,*
1090,10961,894,22.28507,114.2128,WESTLANDS GARDENS BLOCK B,3/1/1975 0:00,0,57679.8,3154.3,60834.1,30,50,52990,0.3,1,0,0,0,0,839965,816248,Eastern,*
1091,11839,674,22.28943,114.19397,WAH HOI MANSION - PODIUM,1/1/1975 0:00,0,12445.1,2490.9,14936,2,50,29000,0.1,1,0,0,1,0,838018,816708,Eastern,*
1095,11764,510,22.2857,114.21233,SUNWAY GARDENS BLOCK F,11/1/1974 0:00,0,45532,4424,49956,28,50,19120,0.4,1,0,0,0,0,839921,816317,Eastern,*
1096,11792,848,22.28533,114.21309,WESTLANDS GARDENS BLOCK D,3/1/1975 0:00,0,57679.8,3154.3,60834.1,30,50,52990,0.2,1,0,0,0,0,839995,816264,Eastern,*
1097,13023,668,22.28968,114.19735,JADE MANSION,2/1/1975 0:00,0,6571.7,303.4,6875.1,27,50,40500,0.4,1,0,0,1,0,838375,816757,Eastern,*
1100,12397,563,22.28589,114.21174,SUNWAY GARDENS BLOCK C,11/1/1974 0:00,0,45532,4424,49956,28,50,19120,0.3,1,0,0,0,0,839856,816341,Eastern,*
1106,14150,848,22.28506,114.21337,WESTLANDS GARDENS BLOCK C,3/1/1975 0:00,0,57679.8,3154.3,60834.1,30,50,52990,0.2,1,0,0,0,0,840028,816235,Eastern,*
1109,12041,681,22.28943,114.19397,WAH HOI MANSION - PODIUM,1/1/1975 0:00,0,12445.1,2490.9,14936,2,50,29000,0.1,1,0,0,1,0,838018,816708,Eastern,*
1113,16597,482,22.28496,114.19265,SUN YING MANSION,1/1/1975 0:00,0,2209.4,493.5,2702.9,21,50,23660,0.3,1,0,0,1,0,837898,816228,Eastern,*
1114,12368,663,22.29001,114.19727,KAVA MANSION,3/1/1975 0:00,0,3359.8,707.3,4067.1,27,50,26780,0.4,1,0,0,1,0,838370,816778,Eastern,*
1116,11744,894,22.2849,114.21309,WESTLANDS GARDENS BLOCK A,3/1/1975 0:00,0,57679.8,3154.3,60834.1,30,50,52990,0.2,1,0,0,0,0,839993,816229,Eastern,*
1117,12304,894,22.28506,114.21337,WESTLANDS GARDENS BLOCK C,3/1/1975 0:00,0,57679.8,3154.3,60834.1,30,50,52990,0.2,1,0,0,0,0,840028,816235,Eastern,*
1118,12015,506,22.28589,114.21174,SUNWAY GARDENS BLOCK C,11/1/1974 0:00,0,45532,4424,49956,28,50,19120,0.3,1,0,0,0,0,839856,816341,Eastern,*
1119,12971,848,22.28549,114.2128,WESTLANDS GARDENS BLOCK E,3/1/1975 0:00,0,57679.8,3154.3,60834.1,30,50,52990,0.3,1,0,0,0,0,839964,816294,Eastern,*
1120,13725,510,22.2857,114.21233,SUNWAY GARDENS BLOCK F,11/1/1974 0:00,0,45532,4424,49956,28,50,19120,0.4,1,0,0,0,0,839921,816317,Eastern,*
1121,14705,510,22.28589,114.21174,SUNWAY GARDENS BLOCK C,11/1/1974 0:00,0,45532,4424,49956,28,50,19120,0.3,1,0,0,0,0,839856,816341,Eastern,*
1123,10069,574,22.2859,114.21136,SUNWAY GARDENS BLOCK A,11/1/1974 0:00,0,45532,4424,49956,28,50,19120,0.2,1,0,0,1,0,839823,816327,Eastern,*
1135,11136,431,22.32234,114.16441,SHIU FUNG MANSION,11/1/1974 0:00,0,4522.3,1526.2,6048.5,14,50,20000,0.5,1,0,0,0,0,834990,820364,Yau Tsim Mong,*
1140,13203,515,22.2752,114.23108,BRILLIANT COURT,4/1/1975 0:00,0,4535,0,4535,26,49,17960,0.6,1,0,0,1,0,841850,815153,Eastern,*
1141,11011,425,22.32126,114.16067,TAI WAI BUILDING,5/1/1975 0:00,0,5284.6,1767.7,7052.3,14,49,19500,0.4,1,0,0,1,1,834598,820249,Yau Tsim Mong,*
1144,12404,603,22.29087,114.20109,KING'S TOWERS BLOCK B,12/1/1974 0:00,0,12671.2,5613,18284.2,22,50,30000,0.05,1,0,0,0,0,838766,816883,Eastern,*
1145,12930,563,22.28589,114.21174,SUNWAY GARDENS BLOCK C,11/1/1974 0:00,0,45532,4424,49956,28,50,19120,0.3,1,0,0,0,0,839856,816341,Eastern,*
1148,11607,560,22.32148,114.16707,HANG TUNG BUILDING BLOCK B,3/1/1975 0:00,238,10220.8,5202.4,15423.2,16,50,12920,0.2,1,0,0,0,0,835263,820266,Yau Tsim Mong,*
1154,10655,488,22.29085,114.20424,HARBOUR COURT,5/1/1976 0:00,0,4507.3,349.8,4857.1,24,48,34910,0.4,1,0,0,1,0,839084,816892,Eastern,*
1169,11474,434,22.28005,114.23016,TUNG HING BUILDING,10/1/1975 0:00,0,4406.9,2719.3,7126.2,22,49,32100,0.05,1,0,0,1,0,841758,815688,Eastern,*
1183,11134,970,22.27826,114.22613,HONG WAH MANSION BLOCK 1,11/1/1985 0:00,400,14087.2,2118.8,16206,28,39,34250,0.3,1,0,0,0,0,841346,815488,Eastern,*
1195,15980,413,22.30335,114.17042,LUCKY BUILDING,8/1/1976 0:00,120,4573.9,801.1,5375,16,48,16780,0.2,1,0,0,0,0,835604,818261,Yau Tsim Mong,*
1196,10824,970,22.27826,114.22613,HONG WAH MANSION BLOCK 1,11/1/1985 0:00,400,14087.2,2118.8,16206,28,39,34250,0.3,1,0,0,0,0,841346,815488,Eastern,*
1207,11791,441,22.3053,114.17222,KA SHUN HOUSE,6/1/1976 0:00,0,2493.7,1220.8,3714.5,17,48,38750,0.05,1,0,0,1,0,835789,818480,Yau Tsim Mong,*
1208,12698,441,22.3053,114.17222,KA SHUN HOUSE,6/1/1976 0:00,0,2493.7,1220.8,3714.5,17,48,38750,0.05,1,0,0,1,0,835789,818480,Yau Tsim Mong,*
1214,12672,434,22.28005,114.23016,TUNG HING BUILDING,10/1/1975 0:00,0,4406.9,2719.3,7126.2,22,49,32100,0.05,1,0,0,1,0,841758,815688,Eastern,*
1218,12269,489,22.28001,114.22522,PO MAN BUILDING,1/1/1976 0:00,0,4384.9,1215.8,5600.7,21,49,32000,0.3,1,0,0,1,0,841254,815692,Eastern,*
1225,14655,580,22.28433,114.221,TUNG TING MANSION,12/1/1976 0:00,0,15351.8,20,15371.8,28,48,47210,0.3,1,0,0,0,1,840811,816168,Eastern,*
1226,18805,452,22.28379,114.19135,VIKING GARDEN BLOCK B,3/1/1977 0:00,400,24336,0,24336,27,48,35350,0.05,1,0,0,1,0,837749,816103,Eastern,*
1227,18642,523,22.284,114.1915,VIKING GARDEN BLOCK A,3/1/1977 0:00,400,24336,0,24336,27,48,35350,0.05,1,0,0,0,0,837764,816126,Eastern,*
1229,11706,545,22.28481,114.22087,PO YANG MANSION,6/1/1977 0:00,218,12745,722,13467,29,47,47210,0.3,1,0,0,0,1,840799,816219,Eastern,*
1230,17817,449,22.28379,114.19135,VIKING GARDEN BLOCK B,3/1/1977 0:00,400,24336,0,24336,27,48,35350,0.05,1,0,0,1,0,837749,816103,Eastern,*
1231,12772,689,22.28528,114.2194,TAIKOO SHING - PO SHAN MANSION,12/1/1981 0:00,198,13271.7,6493.3,19765,32,43,47750,0.4,1,0,0,0,1,840652,816260,Eastern,*
1232,16417,670,22.28528,114.2194,TAIKOO SHING - PO SHAN MANSION,12/1/1981 0:00,198,13271.7,6493.3,19765,32,43,47750,0.4,1,0,0,0,1,840652,816260,Eastern,*
1233,17973,523,22.28379,114.19135,VIKING GARDEN BLOCK B,3/1/1977 0:00,400,24336,0,24336,27,48,35350,0.05,1,0,0,1,0,837749,816103,Eastern,*
1238,16129,589,22.28528,114.2194,TAIKOO SHING - PO SHAN MANSION,12/1/1981 0:00,198,13271.7,6493.3,19765,32,43,47750,0.4,1,0,0,0,1,840652,816260,Eastern,*
1240,12678,489,22.28433,114.221,TUNG TING MANSION,12/1/1976 0:00,0,15351.8,20,15371.8,28,48,47210,0.3,1,0,0,0,1,840811,816168,Eastern,*
1242,12709,502,22.2917,114.20523,ELEGANCE HOUSE BLOCK C,2/1/1961 0:00,0,12854.4,0,12854.4,13,64,44870,0.3,0,0,0,0,0,839190,816977,Eastern,*
1246,8229,401,22.27749,114.22987,HO KING BUILDING,10/1/1979 0:00,60,2288.6,910.3,3198.9,22,45,32100,0.2,1,0,0,0,0,841728,815405,Eastern,*
1248,14000,700,22.28543,114.19451,VIKING VILLAS BLOCK D,10/1/1976 0:00,320,23767.5,0,23767.5,27,48,68600,0.4,1,0,0,0,0,838090,816279,Eastern,*
1249,14170,422,22.284,114.1915,VIKING GARDEN BLOCK A,3/1/1977 0:00,400,24336,0,24336,27,48,35350,0.05,1,0,0,0,0,837764,816126,Eastern,*
1251,14519,489,22.28433,114.221,TUNG TING MANSION,12/1/1976 0:00,0,15351.8,20,15371.8,28,48,47210,0.3,1,0,0,0,1,840811,816168,Eastern,*
1253,12931,580,22.28433,114.221,TUNG TING MANSION,12/1/1976 0:00,0,15351.8,20,15371.8,28,48,47210,0.3,1,0,0,0,1,840811,816168,Eastern,*
1254,15239,689,22.28528,114.2194,TAIKOO SHING - PO SHAN MANSION,12/1/1981 0:00,198,13271.7,6493.3,19765,32,43,47750,0.4,1,0,0,0,1,840652,816260,Eastern,*
1255,14513,689,22.28528,114.2194,TAIKOO SHING - PO SHAN MANSION,12/1/1981 0:00,198,13271.7,6493.3,19765,32,43,47750,0.4,1,0,0,0,1,840652,816260,Eastern,*
1256,15067,596,22.28528,114.2194,TAIKOO SHING - PO SHAN MANSION,12/1/1981 0:00,198,13271.7,6493.3,19765,32,43,47750,0.4,1,0,0,0,1,840652,816260,Eastern,*
1260,19800,452,22.28379,114.19135,VIKING GARDEN BLOCK B,3/1/1977 0:00,400,24336,0,24336,27,48,35350,0.05,1,0,0,1,0,837749,816103,Eastern,*
1261,16330,545,22.28481,114.22087,PO YANG MANSION,6/1/1977 0:00,218,12745,722,13467,29,47,47210,0.3,1,0,0,0,1,840799,816219,Eastern,*
1262,15265,583,22.28481,114.22087,PO YANG MANSION,6/1/1977 0:00,218,12745,722,13467,29,47,47210,0.3,1,0,0,0,1,840799,816219,Eastern,*
1263,17075,489,22.28481,114.22087,PO YANG MANSION,6/1/1977 0:00,218,12745,722,13467,29,47,47210,0.3,1,0,0,0,1,840799,816219,Eastern,*
1264,13062,689,22.28528,114.2194,TAIKOO SHING - PO SHAN MANSION,12/1/1981 0:00,198,13271.7,6493.3,19765,32,43,47750,0.4,1,0,0,0,1,840652,816260,Eastern,*
1267,14888,583,22.28481,114.22087,PO YANG MANSION,6/1/1977 0:00,218,12745,722,13467,29,47,47210,0.3,1,0,0,0,1,840799,816219,Eastern,*
1272,8750,480,22.32352,114.1701,LOK FU MANSION,4/1/1971 0:00,0,2781.6,346.8,3128.4,12,53,13500,0.1,1,0,1,0,0,835570,820501,Yau Tsim Mong,*
1278,13722,583,22.28481,114.22087,PO YANG MANSION,6/1/1977 0:00,218,12745,722,13467,29,47,47210,0.3,1,0,0,0,1,840799,816219,Eastern,*
1288,12320,698,22.30084,114.17474,KIMLAI COURT,7/1/1976 0:00,0,839.4,440.8,1280.2,10,48,15630,0.4,1,0,0,1,0,836049,817987,Yau Tsim Mong,*
1290,15172,580,22.28433,114.221,TUNG TING MANSION,12/1/1976 0:00,0,15351.8,20,15371.8,28,48,47210,0.3,1,0,0,0,1,840811,816168,Eastern,*
1293,13352,689,22.28528,114.2194,TAIKOO SHING - PO SHAN MANSION,12/1/1981 0:00,198,13271.7,6493.3,19765,32,43,47750,0.4,1,0,0,0,1,840652,816260,Eastern,*
1299,15780,583,22.28481,114.22087,PO YANG MANSION,6/1/1977 0:00,218,12745,722,13467,29,47,47210,0.3,1,0,0,0,1,840799,816219,Eastern,*
1301,9945,734,22.28988,114.19813,KINGS COURT,8/1/1993 0:00,78,4331.8,433,4764.8,29,31,40500,0.4,1,0,0,1,0,838454,816781,Eastern,*
1306,10369,596,22.32352,114.1701,LOK FU MANSION,4/1/1971 0:00,0,2781.6,346.8,3128.4,12,53,13500,0.1,1,0,1,0,0,835570,820501,Yau Tsim Mong,*
1311,20134,596,22.28528,114.2194,TAIKOO SHING - PO SHAN MANSION,12/1/1981 0:00,198,13271.7,6493.3,19765,32,43,47750,0.4,1,0,0,0,1,840652,816260,Eastern,*
1312,13223,484,22.2905,114.2009,ALICE COURT,8/1/1977 0:00,0,1591,409,2000,18,47,24500,0.05,1,0,0,1,0,838740,816853,Eastern,*
1315,12315,406,22.26516,114.24519,FU MING COURT,8/1/1977 0:00,60,3248.4,0,3248.4,15,47,30750,1,1,0,0,1,0,843308,814052,Eastern,*
1317,8391,429,22.27749,114.22987,HO KING BUILDING,10/1/1979 0:00,60,2288.6,910.3,3198.9,22,45,32100,0.2,1,0,0,0,0,841728,815405,Eastern,*
1318,15044,452,22.284,114.1915,VIKING GARDEN BLOCK A,3/1/1977 0:00,400,24336,0,24336,27,48,35350,0.05,1,0,0,0,0,837764,816126,Eastern,*
1319,12448,482,22.28481,114.22087,PO YANG MANSION,6/1/1977 0:00,218,12745,722,13467,29,47,47210,0.3,1,0,0,0,1,840799,816219,Eastern,*
1323,18675,589,22.28528,114.2194,TAIKOO SHING - PO SHAN MANSION,12/1/1981 0:00,198,13271.7,6493.3,19765,32,43,47750,0.4,1,0,0,0,1,840652,816260,Eastern,*
1325,15437,583,22.28481,114.22087,PO YANG MANSION,6/1/1977 0:00,218,12745,722,13467,29,47,47210,0.3,1,0,0,0,1,840799,816219,Eastern,*
1327,14215,408,22.28832,114.21107,DRAGON VIEW HOUSE,8/1/1977 0:00,190,8362.1,841.4,9203.5,27,47,30750,0.05,1,0,0,1,0,0,0,Eastern, 
1328,11009,545,22.28433,114.221,TUNG TING MANSION,12/1/1976 0:00,0,15351.8,20,15371.8,28,48,47210,0.3,1,0,0,0,1,840811,816168,Eastern,*
1329,16563,422,22.28379,114.19135,VIKING GARDEN BLOCK B,3/1/1977 0:00,400,24336,0,24336,27,48,35350,0.05,1,0,0,1,0,837749,816103,Eastern,*
1330,14261,596,22.28528,114.2194,TAIKOO SHING - PO SHAN MANSION,12/1/1981 0:00,198,13271.7,6493.3,19765,32,43,47750,0.4,1,0,0,0,1,840652,816260,Eastern,*
1331,15229,545,22.28433,114.221,TUNG TING MANSION,12/1/1976 0:00,0,15351.8,20,15371.8,28,48,47210,0.3,1,0,0,0,1,840811,816168,Eastern,*
1334,12696,471,22.27972,114.23045,EASTWAY TOWERS BLOCK 1,11/1/1976 0:00,528,24589.6,4296,28885.6,26,48,24500,0.05,1,0,0,1,0,841790,815650,Eastern,*
1335,13592,515,22.28918,114.21037,KING'S VIEW COURT BLOCK C,12/1/1976 0:00,234,16690.8,3641.4,20332.2,28,48,30820,0.05,1,0,0,1,0,839719,816705,Eastern,*
1336,14429,596,22.28528,114.2194,TAIKOO SHING - PO SHAN MANSION,12/1/1981 0:00,198,13271.7,6493.3,19765,32,43,47750,0.4,1,0,0,0,1,840652,816260,Eastern,*
1339,16113,422,22.28379,114.19135,VIKING GARDEN BLOCK B,3/1/1977 0:00,400,24336,0,24336,27,48,35350,0.05,1,0,0,1,0,837749,816103,Eastern,*
1340,11517,725,22.28918,114.21037,KING'S VIEW COURT BLOCK C,12/1/1976 0:00,234,16690.8,3641.4,20332.2,28,48,30820,0.05,1,0,0,1,0,839719,816705,Eastern,*
1344,13031,706,22.28528,114.2194,TAIKOO SHING - PO SHAN MANSION,12/1/1981 0:00,198,13271.7,6493.3,19765,32,43,47750,0.4,1,0,0,0,1,840652,816260,Eastern,*
1346,15400,474,22.30329,114.16956,Chong Tak Building,2/1/1977 0:00,44,2271,1142,3413,14,48,23000,0.2,1,0,0,1,0,835514,818255,Yau Tsim Mong,*
1349,14579,583,22.28481,114.22087,PO YANG MANSION,6/1/1977 0:00,218,12745,722,13467,29,47,47210,0.3,1,0,0,0,1,840799,816219,Eastern,*
1352,11092,485,22.29108,114.19865,HANG LUNG BANK EASTERN BRANCH BUILDING,7/1/1977 0:00,0,1747,706.3,2453.3,22,47,26330,0.2,1,0,0,1,0,838513,816905,Eastern,*
1357,14175,582,22.28528,114.2194,TAIKOO SHING - PO SHAN MANSION,12/1/1981 0:00,198,13271.7,6493.3,19765,32,43,47750,0.4,1,0,0,0,1,840652,816260,Eastern,*
1361,15478,690,22.28918,114.21037,KING'S VIEW COURT BLOCK C,12/1/1976 0:00,234,16690.8,3641.4,20332.2,28,48,30820,0.05,1,0,0,1,0,839719,816705,Eastern,*
1362,13691,409,22.29998,114.17494,GRAND BUILDING,8/1/1963 0:00,0,2662.4,646.5,3308.9,9,61,16650,0.3,1,0,0,1,0,836070,817894,Yau Tsim Mong,*
1365,12893,698,22.30084,114.17474,KIMLAI COURT,7/1/1976 0:00,0,839.4,440.8,1280.2,10,48,15630,0.4,1,0,0,1,0,836049,817987,Yau Tsim Mong,*
1369,17060,449,22.284,114.1915,VIKING GARDEN BLOCK A,3/1/1977 0:00,400,24336,0,24336,27,48,35350,0.05,1,0,0,0,0,837764,816126,Eastern,*
1370,14925,536,22.28528,114.2194,TAIKOO SHING - PO SHAN MANSION,12/1/1981 0:00,198,13271.7,6493.3,19765,32,43,47750,0.4,1,0,0,0,1,840652,816260,Eastern,*
1371,12864,583,22.28481,114.22087,PO YANG MANSION,6/1/1977 0:00,218,12745,722,13467,29,47,47210,0.3,1,0,0,0,1,840799,816219,Eastern,*
1372,10000,465,22.32417,114.16795,HONLAND BUILDING,10/1/1976 0:00,72,3290,1927.5,5217.5,15,48,14700,0.05,1,0,0,1,0,835349,820571,Yau Tsim Mong,*
1375,11677,471,22.32417,114.16795,HONLAND BUILDING,10/1/1976 0:00,72,3290,1927.5,5217.5,15,48,14700,0.05,1,0,0,1,0,835349,820571,Yau Tsim Mong,*
1377,14563,515,22.28918,114.21037,KING'S VIEW COURT BLOCK C,12/1/1976 0:00,234,16690.8,3641.4,20332.2,28,48,30820,0.05,1,0,0,1,0,839719,816705,Eastern,*
1380,19266,545,22.28433,114.221,TUNG TING MANSION,12/1/1976 0:00,0,15351.8,20,15371.8,28,48,47210,0.3,1,0,0,0,1,840811,816168,Eastern,*
1381,15298,536,22.28528,114.2194,TAIKOO SHING - PO SHAN MANSION,12/1/1981 0:00,198,13271.7,6493.3,19765,32,43,47750,0.4,1,0,0,0,1,840652,816260,Eastern,*
1385,8728,401,22.27749,114.22987,HO KING BUILDING,10/1/1979 0:00,60,2288.6,910.3,3198.9,22,45,32100,0.2,1,0,0,0,0,841728,815405,Eastern,*
1387,12948,502,22.2917,114.20523,ELEGANCE HOUSE BLOCK C,2/1/1961 0:00,0,12854.4,0,12854.4,13,64,44870,0.3,0,0,0,0,0,839190,816977,Eastern,*
1388,8500,400,22.27749,114.22987,HO KING BUILDING,10/1/1979 0:00,60,2288.6,910.3,3198.9,22,45,32100,0.2,1,0,0,0,0,841728,815405,Eastern,*
1392,12990,408,22.29084,114.19754,AIK SAN MANSION,8/1/1977 0:00,92,4066.4,1147,5213.4,25,47,26330,0.4,1,0,0,1,0,838397,816872,Eastern,*
1395,12753,690,22.28918,114.21037,KING'S VIEW COURT BLOCK C,12/1/1976 0:00,234,16690.8,3641.4,20332.2,28,48,30820,0.05,1,0,0,1,0,839719,816705,Eastern,*
1396,11250,400,22.27749,114.22987,HO KING BUILDING,10/1/1979 0:00,60,2288.6,910.3,3198.9,22,45,32100,0.2,1,0,0,0,0,841728,815405,Eastern,*
1397,10166,480,22.32352,114.1701,LOK FU MANSION,4/1/1971 0:00,0,2781.6,346.8,3128.4,12,53,13500,0.1,1,0,1,0,0,835570,820501,Yau Tsim Mong,*
1402,9044,429,22.27749,114.22987,HO KING BUILDING,10/1/1979 0:00,60,2288.6,910.3,3198.9,22,45,32100,0.2,1,0,0,0,0,841728,815405,Eastern,*
1403,17374,518,22.28528,114.2194,TAIKOO SHING - PO SHAN MANSION,12/1/1981 0:00,198,13271.7,6493.3,19765,32,43,47750,0.4,1,0,0,0,1,840652,816260,Eastern,*
1404,14824,742,22.28988,114.19813,KINGS COURT,8/1/1993 0:00,78,4331.8,433,4764.8,29,31,40500,0.4,1,0,0,1,0,838454,816781,Eastern,*
1405,18900,582,22.28528,114.2194,TAIKOO SHING - PO SHAN MANSION,12/1/1981 0:00,198,13271.7,6493.3,19765,32,43,47750,0.4,1,0,0,0,1,840652,816260,Eastern,*
1406,14224,580,22.28433,114.221,TUNG TING MANSION,12/1/1976 0:00,0,15351.8,20,15371.8,28,48,47210,0.3,1,0,0,0,1,840811,816168,Eastern,*
1412,13978,465,22.2917,114.20523,ELEGANCE HOUSE BLOCK C,2/1/1961 0:00,0,12854.4,0,12854.4,13,64,44870,0.3,0,0,0,0,0,839190,816977,Eastern,*
1416,17431,545,22.28433,114.221,TUNG TING MANSION,12/1/1976 0:00,0,15351.8,20,15371.8,28,48,47210,0.3,1,0,0,0,1,840811,816168,Eastern,*
1417,14552,536,22.28528,114.2194,TAIKOO SHING - PO SHAN MANSION,12/1/1981 0:00,198,13271.7,6493.3,19765,32,43,47750,0.4,1,0,0,0,1,840652,816260,Eastern,*
1418,15965,689,22.28528,114.2194,TAIKOO SHING - PO SHAN MANSION,12/1/1981 0:00,198,13271.7,6493.3,19765,32,43,47750,0.4,1,0,0,0,1,840652,816260,Eastern,*
1421,13773,530,22.28528,114.2194,TAIKOO SHING - PO SHAN MANSION,12/1/1981 0:00,198,13271.7,6493.3,19765,32,43,47750,0.4,1,0,0,0,1,840652,816260,Eastern,*
1423,13322,593,22.28528,114.2194,TAIKOO SHING - PO SHAN MANSION,12/1/1981 0:00,198,13271.7,6493.3,19765,32,43,47750,0.4,1,0,0,0,1,840652,816260,Eastern,*
1425,13157,570,22.28306,114.21352,NAM FUNG SUN CHUEN BLOCK 1,12/1/1977 0:00,0,13599,0,13599,35,47,33000,0.3,1,0,0,1,1,840052,816020,Eastern,*
1428,13128,684,22.28528,114.2194,TAIKOO SHING - PO SHAN MANSION,12/1/1981 0:00,198,13271.7,6493.3,19765,32,43,47750,0.4,1,0,0,0,1,840652,816260,Eastern,*
1429,13178,516,22.28192,114.21468,NAM FUNG SUN CHUEN BLOCK 9,8/1/1978 0:00,0,12336,0,12336,31,46,33000,0.5,1,0,0,0,1,840158,815895,Eastern,*
1431,11589,516,22.28163,114.21344,NAM FUNG SUN CHUEN BLOCK 5,2/1/1978 0:00,0,11914,0,11914,29,47,33000,0.5,1,0,0,0,1,840044,815862,Eastern,*
1435,11007,516,22.28163,114.21344,NAM FUNG SUN CHUEN BLOCK 5,2/1/1978 0:00,0,11914,0,11914,29,47,33000,0.5,1,0,0,0,1,840044,815862,Eastern,*
1436,11252,551,22.28933,114.19676,KIN MING BUILDING,6/1/1978 0:00,0,1995.8,800.2,2796,20,46,34120,0.5,1,0,0,1,0,838319,816710,Eastern,*
1437,10379,501,22.31818,114.17153,KAM DO MANSION,2/1/1978 0:00,28,1624.1,466.8,2090.9,16,47,19640,0.2,1,0,1,1,0,835718,819908,Yau Tsim Mong,*
1440,13121,471,22.30415,114.17278,FORTUNE TERRACE,9/1/1978 0:00,270,15773.4,651.2,16424.6,2,46,38750,0.05,0,0,0,0,0,835851,818354,Yau Tsim Mong,*
1444,15384,455,22.29072,114.20006,KAM MING YUEN,11/1/1977 0:00,0,3344,360,3704,19,47,22170,0.05,1,0,0,0,0,838649,816867,Eastern,*
1445,12209,516,22.28228,114.2147,NAM FUNG SUN CHUEN BLOCK 10,9/1/1978 0:00,0,12757,0,12757,32,46,33000,0.5,1,0,0,0,1,840160,815934,Eastern,*
1446,14619,684,22.28528,114.2194,TAIKOO SHING - PO SHAN MANSION,12/1/1981 0:00,198,13271.7,6493.3,19765,32,43,47750,0.4,1,0,0,0,1,840652,816260,Eastern,*
1449,13133,434,22.28884,114.19468,KWONG CHIU TERRACE BLOCK B,7/1/1978 0:00,0,15410,861,16271,32,46,51000,0.05,1,0,0,0,0,838103,816662,Eastern,*
1453,15463,582,22.28528,114.2194,TAIKOO SHING - PO SHAN MANSION,12/1/1981 0:00,198,13271.7,6493.3,19765,32,43,47750,0.4,1,0,0,0,1,840652,816260,Eastern,*
1454,14333,593,22.28528,114.2194,TAIKOO SHING - PO SHAN MANSION,12/1/1981 0:00,198,13271.7,6493.3,19765,32,43,47750,0.4,1,0,0,0,1,840652,816260,Eastern,*
1455,12714,582,22.28528,114.2194,TAIKOO SHING - PO SHAN MANSION,12/1/1981 0:00,198,13271.7,6493.3,19765,32,43,47750,0.4,1,0,0,0,1,840652,816260,Eastern,*
1456,16494,582,22.28528,114.2194,TAIKOO SHING - PO SHAN MANSION,12/1/1981 0:00,198,13271.7,6493.3,19765,32,43,47750,0.4,1,0,0,0,1,840652,816260,Eastern,*
1457,11901,689,22.28528,114.2194,TAIKOO SHING - PO SHAN MANSION,12/1/1981 0:00,198,13271.7,6493.3,19765,32,43,47750,0.4,1,0,0,0,1,840652,816260,Eastern,*
1458,13567,684,22.28528,114.2194,TAIKOO SHING - PO SHAN MANSION,12/1/1981 0:00,198,13271.7,6493.3,19765,32,43,47750,0.4,1,0,0,0,1,840652,816260,Eastern,*
1461,16863,593,22.28528,114.2194,TAIKOO SHING - PO SHAN MANSION,12/1/1981 0:00,198,13271.7,6493.3,19765,32,43,47750,0.4,1,0,0,0,1,840652,816260,Eastern,*
1462,14147,516,22.28198,114.21346,NAM FUNG SUN CHUEN BLOCK 4,2/1/1978 0:00,0,11914,0,11914,29,47,33000,0.5,1,0,0,0,1,840046,815901,Eastern,*
1468,12917,689,22.28528,114.2194,TAIKOO SHING - PO SHAN MANSION,12/1/1981 0:00,198,13271.7,6493.3,19765,32,43,47750,0.4,1,0,0,0,1,840652,816260,Eastern,*
1470,16642,691,22.28528,114.2194,TAIKOO SHING - PO SHAN MANSION,12/1/1981 0:00,198,13271.7,6493.3,19765,32,43,47750,0.4,1,0,0,0,1,840652,816260,Eastern,*
1472,15116,516,22.28306,114.21352,NAM FUNG SUN CHUEN BLOCK 1,12/1/1977 0:00,0,13599,0,13599,35,47,33000,0.3,1,0,0,1,1,840052,816020,Eastern,*
1473,11929,570,22.28264,114.21472,NAM FUNG SUN CHUEN BLOCK 11,9/1/1978 0:00,0,12757,0,12757,32,46,33000,0.4,1,0,0,0,1,840163,815973,Eastern,*
1476,13546,516,22.28159,114.21428,NAM FUNG SUN CHUEN BLOCK 7,6/1/1978 0:00,0,11645,74.2,11719.2,29,46,33000,0.5,1,0,0,0,1,840123,815865,Eastern,*
1479,17518,685,22.28528,114.2194,TAIKOO SHING - PO SHAN MANSION,12/1/1981 0:00,198,13271.7,6493.3,19765,32,43,47750,0.4,1,0,0,0,1,840652,816260,Eastern,*
1480,12631,570,22.28228,114.2147,NAM FUNG SUN CHUEN BLOCK 10,9/1/1978 0:00,0,12757,0,12757,32,46,33000,0.5,1,0,0,0,1,840160,815934,Eastern,*
1482,18490,530,22.28528,114.2194,TAIKOO SHING - PO SHAN MANSION,12/1/1981 0:00,198,13271.7,6493.3,19765,32,43,47750,0.4,1,0,0,0,1,840652,816260,Eastern,*
1484,14026,606,22.30415,114.17278,FORTUNE TERRACE,9/1/1978 0:00,270,15773.4,651.2,16424.6,2,46,38750,0.05,0,0,0,0,0,835851,818354,Yau Tsim Mong,*
1485,13416,401,22.29894,114.17514,PRAT MANSIONS,9/1/1977 0:00,128,6041.7,3016.8,9058.5,18,47,16650,0.2,1,0,0,0,0,836092,817780,Yau Tsim Mong,*
1486,11901,689,22.28528,114.2194,TAIKOO SHING - PO SHAN MANSION,12/1/1981 0:00,198,13271.7,6493.3,19765,32,43,47750,0.4,1,0,0,0,1,840652,816260,Eastern,*
1489,12975,578,22.27957,114.22432,BELLEVE COURT BLOCK B,9/1/1988 0:00,300,9939.8,670.2,10610,27,36,30000,0.4,1,0,0,0,0,841159,815637,Eastern,*
1490,14077,753,22.27957,114.22432,BELLEVE COURT BLOCK B,9/1/1988 0:00,300,9939.8,670.2,10610,27,36,30000,0.4,1,0,0,0,0,841159,815637,Eastern,*
1491,13913,552,22.28514,114.19243,TIMMAR COURT,12/1/1977 0:00,0,2598,1044,3642,24,47,23660,0.3,1,0,0,1,0,837869,816258,Eastern,*
1493,13868,685,22.28528,114.2194,TAIKOO SHING - PO SHAN MANSION,12/1/1981 0:00,198,13271.7,6493.3,19765,32,43,47750,0.4,1,0,0,0,1,840652,816260,Eastern,*
1494,9523,441,22.26267,114.2365,CHAI WAN CINEMA BUILDING,11/1/1978 0:00,151,7626.8,4808.2,12435,28,46,23770,0.05,1,0,0,1,0,842410,813752,Eastern,*
1499,10465,516,22.28163,114.21344,NAM FUNG SUN CHUEN BLOCK 5,2/1/1978 0:00,0,11914,0,11914,29,47,33000,0.5,1,0,0,0,1,840044,815862,Eastern,*
1500,12245,570,22.28157,114.21466,NAM FUNG SUN CHUEN BLOCK 8,8/1/1978 0:00,0,12118,0,12118,30,46,33000,0.6,1,0,0,0,1,840162,815863,Eastern,*
1501,11240,516,22.28306,114.21352,NAM FUNG SUN CHUEN BLOCK 1,12/1/1977 0:00,0,13599,0,13599,35,47,33000,0.3,1,0,0,1,1,840052,816020,Eastern,*
1502,10629,413,22.27783,114.22924,WING WAH HOUSE,7/1/1966 0:00,0,1516,257.3,1773.3,10,58,25000,0.05,1,0,0,1,0,841663,815448,Eastern,*
1503,14956,460,22.32551,114.16784,AMBER HOUSE,7/1/1978 0:00,44,2124.9,1124.7,3249.6,14,46,20000,0.05,1,0,0,1,0,835337,820721,Yau Tsim Mong,*
1504,12616,753,22.27957,114.22432,BELLEVE COURT BLOCK B,9/1/1988 0:00,300,9939.8,670.2,10610,27,36,30000,0.4,1,0,0,0,0,841159,815637,Eastern,*
1510,14285,434,22.28884,114.19468,KWONG CHIU TERRACE BLOCK B,7/1/1978 0:00,0,15410,861,16271,32,46,51000,0.05,1,0,0,0,0,838103,816662,Eastern,*
1513,20618,582,22.28528,114.2194,TAIKOO SHING - PO SHAN MANSION,12/1/1981 0:00,198,13271.7,6493.3,19765,32,43,47750,0.4,1,0,0,0,1,840652,816260,Eastern,*
1516,14579,583,22.2846,114.22054,TAI WOO MANSION,6/1/1978 0:00,206,12595.3,414,13009.3,28,46,47210,0.3,1,0,0,0,1,840766,816194,Eastern,*
1522,10877,570,22.28306,114.21352,NAM FUNG SUN CHUEN BLOCK 1,12/1/1977 0:00,0,13599,0,13599,35,47,33000,0.3,1,0,0,1,1,840052,816020,Eastern,*
1524,11240,516,22.28306,114.21352,NAM FUNG SUN CHUEN BLOCK 1,12/1/1977 0:00,0,13599,0,13599,35,47,33000,0.3,1,0,0,1,1,840052,816020,Eastern,*
1525,16472,516,22.28264,114.21472,NAM FUNG SUN CHUEN BLOCK 11,9/1/1978 0:00,0,12757,0,12757,32,46,33000,0.4,1,0,0,0,1,840163,815973,Eastern,*
1526,14513,689,22.28528,114.2194,TAIKOO SHING - PO SHAN MANSION,12/1/1981 0:00,198,13271.7,6493.3,19765,32,43,47750,0.4,1,0,0,0,1,840652,816260,Eastern,*
1527,15437,583,22.2846,114.22054,TAI WOO MANSION,6/1/1978 0:00,206,12595.3,414,13009.3,28,46,47210,0.3,1,0,0,0,1,840766,816194,Eastern,*
1533,11322,484,22.2846,114.22054,TAI WOO MANSION,6/1/1978 0:00,206,12595.3,414,13009.3,28,46,47210,0.3,1,0,0,0,1,840766,816194,Eastern,*
1535,15318,581,22.28528,114.2194,TAIKOO SHING - PO SHAN MANSION,12/1/1981 0:00,198,13271.7,6493.3,19765,32,43,47750,0.4,1,0,0,0,1,840652,816260,Eastern,*
1537,14000,570,22.28159,114.21428,NAM FUNG SUN CHUEN BLOCK 7,6/1/1978 0:00,0,11645,74.2,11719.2,29,46,33000,0.5,1,0,0,0,1,840123,815865,Eastern,*
1539,16690,689,22.28528,114.2194,TAIKOO SHING - PO SHAN MANSION,12/1/1981 0:00,198,13271.7,6493.3,19765,32,43,47750,0.4,1,0,0,0,1,840652,816260,Eastern,*
1542,16389,529,22.28528,114.2194,TAIKOO SHING - PO SHAN MANSION,12/1/1981 0:00,198,13271.7,6493.3,19765,32,43,47750,0.4,1,0,0,0,1,840652,816260,Eastern,*
1545,20618,582,22.28528,114.2194,TAIKOO SHING - PO SHAN MANSION,12/1/1981 0:00,198,13271.7,6493.3,19765,32,43,47750,0.4,1,0,0,0,1,840652,816260,Eastern,*
1552,15120,582,22.28528,114.2194,TAIKOO SHING - PO SHAN MANSION,12/1/1981 0:00,198,13271.7,6493.3,19765,32,43,47750,0.4,1,0,0,0,1,840652,816260,Eastern,*
1553,16188,593,22.28528,114.2194,TAIKOO SHING - PO SHAN MANSION,12/1/1981 0:00,198,13271.7,6493.3,19765,32,43,47750,0.4,1,0,0,0,1,840652,816260,Eastern,*
1554,13366,606,22.30415,114.17278,FORTUNE TERRACE,9/1/1978 0:00,270,15773.4,651.2,16424.6,2,46,38750,0.05,0,0,0,0,0,835851,818354,Yau Tsim Mong,*
1556,13457,593,22.28528,114.2194,TAIKOO SHING - PO SHAN MANSION,12/1/1981 0:00,198,13271.7,6493.3,19765,32,43,47750,0.4,1,0,0,0,1,840652,816260,Eastern,*
1558,14598,685,22.28528,114.2194,TAIKOO SHING - PO SHAN MANSION,12/1/1981 0:00,198,13271.7,6493.3,19765,32,43,47750,0.4,1,0,0,0,1,840652,816260,Eastern,*
1563,18900,582,22.28528,114.2194,TAIKOO SHING - PO SHAN MANSION,12/1/1981 0:00,198,13271.7,6493.3,19765,32,43,47750,0.4,1,0,0,0,1,840652,816260,Eastern,*
1566,12807,570,22.28163,114.21344,NAM FUNG SUN CHUEN BLOCK 5,2/1/1978 0:00,0,11914,0,11914,29,47,33000,0.5,1,0,0,0,1,840044,815862,Eastern,*
1567,15292,582,22.28528,114.2194,TAIKOO SHING - PO SHAN MANSION,12/1/1981 0:00,198,13271.7,6493.3,19765,32,43,47750,0.4,1,0,0,0,1,840652,816260,Eastern,*
1568,15207,434,22.28884,114.19468,KWONG CHIU TERRACE BLOCK B,7/1/1978 0:00,0,15410,861,16271,32,46,51000,0.05,1,0,0,0,0,838103,816662,Eastern,*
1571,13138,685,22.28528,114.2194,TAIKOO SHING - PO SHAN MANSION,12/1/1981 0:00,198,13271.7,6493.3,19765,32,43,47750,0.4,1,0,0,0,1,840652,816260,Eastern,*
1573,14579,583,22.2846,114.22054,TAI WOO MANSION,6/1/1978 0:00,206,12595.3,414,13009.3,28,46,47210,0.3,1,0,0,0,1,840766,816194,Eastern,*
1574,13178,516,22.28159,114.21428,NAM FUNG SUN CHUEN BLOCK 7,6/1/1978 0:00,0,11645,74.2,11719.2,29,46,33000,0.5,1,0,0,0,1,840123,815865,Eastern,*
1575,15807,582,22.28528,114.2194,TAIKOO SHING - PO SHAN MANSION,12/1/1981 0:00,198,13271.7,6493.3,19765,32,43,47750,0.4,1,0,0,0,1,840652,816260,Eastern,*
1576,14604,582,22.28528,114.2194,TAIKOO SHING - PO SHAN MANSION,12/1/1981 0:00,198,13271.7,6493.3,19765,32,43,47750,0.4,1,0,0,0,1,840652,816260,Eastern,*
1580,8410,711,22.31223,114.17105,KAM WA BUILDING,11/1/1966 0:00,0,4030.4,515.4,4545.8,17,58,18490,0.05,1,0,0,1,0,835668,819250,Yau Tsim Mong,*
1582,18588,581,22.28528,114.2194,TAIKOO SHING - PO SHAN MANSION,12/1/1981 0:00,198,13271.7,6493.3,19765,32,43,47750,0.4,1,0,0,0,1,840652,816260,Eastern,*
1583,13490,593,22.28528,114.2194,TAIKOO SHING - PO SHAN MANSION,12/1/1981 0:00,198,13271.7,6493.3,19765,32,43,47750,0.4,1,0,0,0,1,840652,816260,Eastern,*
1585,17928,502,22.28587,114.19058,BELLE HOUSE,9/1/1977 0:00,135,7677.4,1062,8739.4,25,47,32890,0.4,1,0,0,1,0,837676,816342,Eastern,*
1586,11719,570,22.28157,114.21466,NAM FUNG SUN CHUEN BLOCK 8,8/1/1978 0:00,0,12118,0,12118,30,46,33000,0.6,1,0,0,0,1,840162,815863,Eastern,*
1588,12992,685,22.28528,114.2194,TAIKOO SHING - PO SHAN MANSION,12/1/1981 0:00,198,13271.7,6493.3,19765,32,43,47750,0.4,1,0,0,0,1,840652,816260,Eastern,*
1592,13759,516,22.28159,114.21428,NAM FUNG SUN CHUEN BLOCK 7,6/1/1978 0:00,0,11645,74.2,11719.2,29,46,33000,0.5,1,0,0,0,1,840123,815865,Eastern,*
1593,13953,516,22.28264,114.21472,NAM FUNG SUN CHUEN BLOCK 11,9/1/1978 0:00,0,12757,0,12757,32,46,33000,0.4,1,0,0,0,1,840163,815973,Eastern,*
1595,20000,530,22.28528,114.2194,TAIKOO SHING - PO SHAN MANSION,12/1/1981 0:00,198,13271.7,6493.3,19765,32,43,47750,0.4,1,0,0,0,1,840652,816260,Eastern,*
1596,13168,606,22.30415,114.17278,FORTUNE TERRACE,9/1/1978 0:00,270,15773.4,651.2,16424.6,2,46,38750,0.05,0,0,0,0,0,835851,818354,Yau Tsim Mong,*
1597,16267,584,22.27957,114.22432,BELLEVE COURT BLOCK B,9/1/1988 0:00,300,9939.8,670.2,10610,27,36,30000,0.4,1,0,0,0,0,841159,815637,Eastern,*
1604,15936,753,22.27957,114.22432,BELLEVE COURT BLOCK B,9/1/1988 0:00,300,9939.8,670.2,10610,27,36,30000,0.4,1,0,0,0,0,841159,815637,Eastern,*
1612,11240,685,22.28528,114.2194,TAIKOO SHING - PO SHAN MANSION,12/1/1981 0:00,198,13271.7,6493.3,19765,32,43,47750,0.4,1,0,0,0,1,840652,816260,Eastern,*
1614,13653,709,22.28647,114.21632,TAIKOO SHING - YUAN KUNG MANSION,1/1/1980 0:00,1456,106804,3109.2,109913.2,29,45,64210,0.05,1,0,0,0,1,840332,816392,Eastern,*
1616,11970,685,22.28528,114.2194,TAIKOO SHING - PO SHAN MANSION,12/1/1981 0:00,198,13271.7,6493.3,19765,32,43,47750,0.4,1,0,0,0,1,840652,816260,Eastern,*
1618,14005,689,22.28528,114.2194,TAIKOO SHING - PO SHAN MANSION,12/1/1981 0:00,198,13271.7,6493.3,19765,32,43,47750,0.4,1,0,0,0,1,840652,816260,Eastern,*
1619,15625,704,22.28528,114.2194,TAIKOO SHING - PO SHAN MANSION,12/1/1981 0:00,198,13271.7,6493.3,19765,32,43,47750,0.4,1,0,0,0,1,840652,816260,Eastern,*
1621,12864,583,22.28601,114.21543,TANG KUNG MANSION,6/1/1981 0:00,208,12665.4,914.1,13579.5,29,43,63000,0.05,1,0,0,0,1,840241,816357,Eastern,*
1623,13675,702,22.28647,114.21526,TAIKOO SHING - HAN KUNG MANSION,1/1/1980 0:00,1456,106804,3109.2,109913.2,29,45,64210,0.1,1,0,0,0,1,840223,816393,Eastern,*
1636,13532,702,22.28647,114.2156,TAIKOO SHING - HSIA KUNG MANSION,1/1/1980 0:00,1456,106804,3109.2,109913.2,29,45,64210,0.1,1,0,0,0,1,840259,816392,Eastern,*
1637,14809,709,22.28647,114.21632,TAIKOO SHING - YUAN KUNG MANSION,1/1/1980 0:00,1456,106804,3109.2,109913.2,29,45,64210,0.05,1,0,0,0,1,840332,816392,Eastern,*
1638,18609,489,22.28601,114.21543,TANG KUNG MANSION,6/1/1981 0:00,208,12665.4,914.1,13579.5,29,43,63000,0.05,1,0,0,0,1,840241,816357,Eastern,*
1641,14435,762,22.28528,114.2194,TAIKOO SHING - PO SHAN MANSION,12/1/1981 0:00,198,13271.7,6493.3,19765,32,43,47750,0.4,1,0,0,0,1,840652,816260,Eastern,*
1642,16381,702,22.28647,114.2156,TAIKOO SHING - HSIA KUNG MANSION,1/1/1980 0:00,1456,106804,3109.2,109913.2,29,45,64210,0.1,1,0,0,0,1,840259,816392,Eastern,*
1643,17103,580,22.28647,114.21632,TAIKOO SHING - YUAN KUNG MANSION,1/1/1980 0:00,1456,106804,3109.2,109913.2,29,45,64210,0.05,1,0,0,0,1,840332,816392,Eastern,*
1650,10021,459,22.26556,114.2455,FU SHING COURT,2/1/1979 0:00,112,6162.3,0,6162.3,15,46,30750,1,1,0,0,1,0,843340,814088,Eastern,*
1657,14937,723,22.28647,114.21632,TAIKOO SHING - YUAN KUNG MANSION,1/1/1980 0:00,1456,106804,3109.2,109913.2,29,45,64210,0.05,1,0,0,0,1,840332,816392,Eastern,*
1661,15056,797,22.28528,114.2194,TAIKOO SHING - PO SHAN MANSION,12/1/1981 0:00,198,13271.7,6493.3,19765,32,43,47750,0.4,1,0,0,0,1,840652,816260,Eastern,*
1663,14661,723,22.28647,114.21632,TAIKOO SHING - YUAN KUNG MANSION,1/1/1980 0:00,1456,106804,3109.2,109913.2,29,45,64210,0.05,1,0,0,0,1,840332,816392,Eastern,*
1666,16051,704,22.28528,114.2194,TAIKOO SHING - PO SHAN MANSION,12/1/1981 0:00,198,13271.7,6493.3,19765,32,43,47750,0.4,1,0,0,0,1,840652,816260,Eastern,*
1667,14000,450,22.28745,114.19249,CARSON MANSION BLOCK A,6/1/1979 0:00,376,17824.4,6530.7,24355.1,34,45,23000,0.2,1,0,0,0,0,837886,816506,Eastern,*
1669,13409,522,22.28745,114.19249,CARSON MANSION BLOCK A,6/1/1979 0:00,376,17824.4,6530.7,24355.1,34,45,23000,0.2,1,0,0,0,0,837886,816506,Eastern,*
1675,15862,580,22.28647,114.2156,TAIKOO SHING - HSIA KUNG MANSION,1/1/1980 0:00,1456,106804,3109.2,109913.2,29,45,64210,0.1,1,0,0,0,1,840259,816392,Eastern,*
1677,14245,702,22.28647,114.2156,TAIKOO SHING - HSIA KUNG MANSION,1/1/1980 0:00,1456,106804,3109.2,109913.2,29,45,64210,0.1,1,0,0,0,1,840259,816392,Eastern,*
1678,10129,464,22.26556,114.2455,FU SHING COURT,2/1/1979 0:00,112,6162.3,0,6162.3,15,46,30750,1,1,0,0,1,0,843340,814088,Eastern,*
1684,13868,685,22.28528,114.2194,TAIKOO SHING - PO SHAN MANSION,12/1/1981 0:00,198,13271.7,6493.3,19765,32,43,47750,0.4,1,0,0,0,1,840652,816260,Eastern,*
1690,15950,489,22.28601,114.21543,TANG KUNG MANSION,6/1/1981 0:00,208,12665.4,914.1,13579.5,29,43,63000,0.05,1,0,0,0,1,840241,816357,Eastern,*
1693,15177,593,22.28528,114.2194,TAIKOO SHING - PO SHAN MANSION,12/1/1981 0:00,198,13271.7,6493.3,19765,32,43,47750,0.4,1,0,0,0,1,840652,816260,Eastern,*
1698,16220,709,22.28647,114.21632,TAIKOO SHING - YUAN KUNG MANSION,1/1/1980 0:00,1456,106804,3109.2,109913.2,29,45,64210,0.05,1,0,0,0,1,840332,816392,Eastern,*
1709,15905,723,22.28647,114.21526,TAIKOO SHING - HAN KUNG MANSION,1/1/1980 0:00,1456,106804,3109.2,109913.2,29,45,64210,0.1,1,0,0,0,1,840223,816393,Eastern,*
1710,14245,702,22.28647,114.21632,TAIKOO SHING - YUAN KUNG MANSION,1/1/1980 0:00,1456,106804,3109.2,109913.2,29,45,64210,0.05,1,0,0,0,1,840332,816392,Eastern,*
1719,14814,459,22.28766,114.19241,CARSON MANSION BLOCK B,6/1/1979 0:00,376,17824.4,6530.7,24355.1,23,45,23000,0.2,1,0,0,0,0,837863,816525,Eastern,*
1722,16513,545,22.28601,114.21543,TANG KUNG MANSION,6/1/1981 0:00,208,12665.4,914.1,13579.5,29,43,63000,0.05,1,0,0,0,1,840241,816357,Eastern,*
1736,11835,414,22.29993,114.17482,HANG LUNG BANK BUILDING,9/1/1978 0:00,45,2300.1,1354.2,3654.3,18,46,16650,0.3,1,0,0,1,0,836056,817890,Yau Tsim Mong,*
1737,11061,452,22.31644,114.17134,HUNG KWONG BUILDING BLOCK A,7/1/1979 0:00,176,8611.4,2145.3,10756.7,24,45,17500,0.3,0,0,0,1,0,835698,819717,Yau Tsim Mong,*
1738,14333,593,22.28528,114.2194,TAIKOO SHING - PO SHAN MANSION,12/1/1981 0:00,198,13271.7,6493.3,19765,32,43,47750,0.4,1,0,0,0,1,840652,816260,Eastern,*
1744,16295,583,22.28601,114.21543,TANG KUNG MANSION,6/1/1981 0:00,208,12665.4,914.1,13579.5,29,43,63000,0.05,1,0,0,0,1,840241,816357,Eastern,*
1749,16898,503,22.28687,114.21408,TAIKOO SHING - KIN ON MANSION,10/1/1980 0:00,1357,88742.3,3384.8,92127.1,30,44,63000,0.5,1,0,0,0,1,840097,816442,Eastern,*
1761,13876,503,22.28687,114.21408,TAIKOO SHING - KIN ON MANSION,10/1/1980 0:00,1357,88742.3,3384.8,92127.1,30,44,63000,0.5,1,0,0,0,1,840097,816442,Eastern,*
1764,13036,583,22.28618,114.21481,TAIKOO SHING - NING ON MANSION,10/1/1980 0:00,1357,88742.3,3384.8,92127.1,30,44,63000,0.1,1,0,0,0,1,840177,816359,Eastern,*
1767,16662,719,22.28715,114.19795,BEVERLEY HEIGHTS BLOCK 2,10/1/1979 0:00,320,25547.2,0,25547.2,24,45,90160,1.5,1,0,0,0,0,838442,816479,Eastern,*
1768,12556,446,22.29134,114.20337,HEALTHY GARDENS BLOCK F,12/1/1979 0:00,0,52630,11730,64360,27,45,30000,0.3,1,0,0,0,1,839002,816938,Eastern,*
1774,13228,446,22.29158,114.20354,HEALTHY GARDENS BLOCK A,12/1/1979 0:00,0,52630,11730,64360,27,45,30000,0.3,1,0,0,0,1,839014,816965,Eastern,*
1775,15344,580,22.28618,114.21481,TAIKOO SHING - NING ON MANSION,10/1/1980 0:00,1357,88742.3,3384.8,92127.1,30,44,63000,0.1,1,0,0,0,1,840177,816359,Eastern,*
1777,12719,456,22.29151,114.20417,HEALTHY GARDENS BLOCK D,12/1/1979 0:00,0,52630,11730,64360,27,45,30000,0.4,1,0,0,0,1,839083,816957,Eastern,*
1778,15904,503,22.28687,114.21408,TAIKOO SHING - KIN ON MANSION,10/1/1980 0:00,1357,88742.3,3384.8,92127.1,30,44,63000,0.5,1,0,0,0,1,840097,816442,Eastern,*
1781,13788,718,22.28674,114.19794,BEVERLEY HEIGHTS BLOCK 3,10/1/1979 0:00,320,25547.2,0,25547.2,24,45,90160,1.5,1,0,0,0,0,838438,816434,Eastern,*
1782,15669,702,22.28681,114.21526,TAIKOO SHING - CHAI KUNG MANSION,1/1/1980 0:00,1456,106804,3109.2,109913.2,29,45,64210,0.6,1,0,0,0,1,840216,816437,Eastern,*
1785,13481,586,22.30385,114.17296,HONG YUEN COURT BLOCK B,5/1/1980 0:00,120,7615.1,894.8,8509.9,16,44,14150,0.1,0,0,0,1,0,835864,818323,Yau Tsim Mong,*
1788,12456,456,22.29158,114.20354,HEALTHY GARDENS BLOCK A,12/1/1979 0:00,0,52630,11730,64360,27,45,30000,0.3,1,0,0,0,1,839014,816965,Eastern,*
1791,13400,597,22.30385,114.17296,HONG YUEN COURT BLOCK B,5/1/1980 0:00,120,7615.1,894.8,8509.9,16,44,14150,0.1,0,0,0,1,0,835864,818323,Yau Tsim Mong,*
1792,15000,420,22.28957,114.20908,LIDO APARTMENTS,5/1/1958 0:00,0,12936.5,542.9,13479.4,17,66,26990,0.2,1,1,0,1,0,839609,816746,Eastern,**
1795,14505,586,22.30385,114.17296,HONG YUEN COURT BLOCK B,5/1/1980 0:00,120,7615.1,894.8,8509.9,16,44,14150,0.1,0,0,0,1,0,835864,818323,Yau Tsim Mong,*
1801,14623,718,22.28674,114.19815,BEVERLEY HEIGHTS BLOCK 4,10/1/1979 0:00,320,25547.2,0,25547.2,24,45,90160,1.5,1,0,0,0,0,838460,816434,Eastern,*
1803,15320,718,22.28674,114.19794,BEVERLEY HEIGHTS BLOCK 3,10/1/1979 0:00,320,25547.2,0,25547.2,24,45,90160,1.5,1,0,0,0,0,838438,816434,Eastern,*
1804,15280,589,22.28165,114.1932,DRAGON COURT BLOCK A,3/1/1980 0:00,0,35279,95,35374,30,45,68600,0.3,1,0,0,0,0,837954,815867,Eastern,*
1807,13950,724,22.28715,114.19795,BEVERLEY HEIGHTS BLOCK 2,10/1/1979 0:00,320,25547.2,0,25547.2,24,45,90160,1.5,1,0,0,0,0,838442,816479,Eastern,*
1808,14137,580,22.28618,114.21481,TAIKOO SHING - NING ON MANSION,10/1/1980 0:00,1357,88742.3,3384.8,92127.1,30,44,63000,0.1,1,0,0,0,1,840177,816359,Eastern,*
1809,15770,506,22.28652,114.21407,TAIKOO SHING - HING ON MANSION,10/1/1980 0:00,1357,88742.3,3384.8,92127.1,30,44,63000,0.5,1,0,0,0,1,840101,816396,Eastern,*
1815,12280,456,22.29134,114.20337,HEALTHY GARDENS BLOCK F,12/1/1979 0:00,0,52630,11730,64360,27,45,30000,0.3,1,0,0,0,1,839002,816938,Eastern,*
1818,15406,714,22.28618,114.21481,TAIKOO SHING - NING ON MANSION,10/1/1980 0:00,1357,88742.3,3384.8,92127.1,30,44,63000,0.1,1,0,0,0,1,840177,816359,Eastern,*
1819,13287,587,22.28652,114.21407,TAIKOO SHING - HING ON MANSION,10/1/1980 0:00,1357,88742.3,3384.8,92127.1,30,44,63000,0.5,1,0,0,0,1,840101,816396,Eastern,*
1820,14164,706,22.28618,114.21481,TAIKOO SHING - NING ON MANSION,10/1/1980 0:00,1357,88742.3,3384.8,92127.1,30,44,63000,0.1,1,0,0,0,1,840177,816359,Eastern,*
1832,14937,723,22.28674,114.19794,BEVERLEY HEIGHTS BLOCK 3,10/1/1979 0:00,320,25547.2,0,25547.2,24,45,90160,1.5,1,0,0,0,0,838438,816434,Eastern,*
1839,15246,446,22.29166,114.20393,HEALTHY GARDENS BLOCK B,12/1/1979 0:00,0,52630,11730,64360,27,45,30000,0.3,1,0,0,0,1,839058,816971,Eastern,*
1841,15513,419,22.30136,114.17411,YIU PONT HOUSE,5/1/1980 0:00,26,1302.4,167.6,1470,14,44,23660,0.5,1,0,0,1,0,835983,818047,Yau Tsim Mong,*
1846,13991,456,22.29174,114.20433,HEALTHY GARDENS BLOCK C,12/1/1979 0:00,0,52630,11730,64360,27,45,30000,0.4,1,0,0,0,1,839098,816979,Eastern,*
1847,19725,583,22.28652,114.21407,TAIKOO SHING - HING ON MANSION,10/1/1980 0:00,1357,88742.3,3384.8,92127.1,30,44,63000,0.5,1,0,0,0,1,840101,816396,Eastern,*
1851,16358,703,22.28687,114.21408,TAIKOO SHING - KIN ON MANSION,10/1/1980 0:00,1357,88742.3,3384.8,92127.1,30,44,63000,0.5,1,0,0,0,1,840097,816442,Eastern,*
1855,15307,456,22.29174,114.20433,HEALTHY GARDENS BLOCK C,12/1/1979 0:00,0,52630,11730,64360,27,45,30000,0.4,1,0,0,0,1,839098,816979,Eastern,*
1859,13870,620,22.28984,114.19639,WISEMAN BUILDING,7/1/1980 0:00,100,7075,0,7075,26,44,26250,0.4,1,0,0,1,0,838282,816765,Eastern,*
1864,13004,446,22.29134,114.20337,HEALTHY GARDENS BLOCK F,12/1/1979 0:00,0,52630,11730,64360,27,45,30000,0.3,1,0,0,0,1,839002,816938,Eastern,*
1873,14431,589,22.28165,114.1932,DRAGON COURT BLOCK A,3/1/1980 0:00,0,35279,95,35374,30,45,68600,0.3,1,0,0,0,0,837954,815867,Eastern,*
1875,15246,446,22.29158,114.20354,HEALTHY GARDENS BLOCK A,12/1/1979 0:00,0,52630,11730,64360,27,45,30000,0.3,1,0,0,0,1,839014,816965,Eastern,*
1876,16379,580,22.28618,114.21481,TAIKOO SHING - NING ON MANSION,10/1/1980 0:00,1357,88742.3,3384.8,92127.1,30,44,63000,0.1,1,0,0,0,1,840177,816359,Eastern,*
1878,15580,706,22.28618,114.21481,TAIKOO SHING - NING ON MANSION,10/1/1980 0:00,1357,88742.3,3384.8,92127.1,30,44,63000,0.1,1,0,0,0,1,840177,816359,Eastern,*
1889,16996,506,22.28652,114.21407,TAIKOO SHING - HING ON MANSION,10/1/1980 0:00,1357,88742.3,3384.8,92127.1,30,44,63000,0.5,1,0,0,0,1,840101,816396,Eastern,*
1907,21710,456,22.29174,114.20433,HEALTHY GARDENS BLOCK C,12/1/1979 0:00,0,52630,11730,64360,27,45,30000,0.4,1,0,0,0,1,839098,816979,Eastern,*
1909,13228,446,22.29158,114.20354,HEALTHY GARDENS BLOCK A,12/1/1979 0:00,0,52630,11730,64360,27,45,30000,0.3,1,0,0,0,1,839014,816965,Eastern,*
1916,14950,602,22.28618,114.21481,TAIKOO SHING - NING ON MANSION,10/1/1980 0:00,1357,88742.3,3384.8,92127.1,30,44,63000,0.1,1,0,0,0,1,840177,816359,Eastern,*
1917,15580,706,22.28618,114.21481,TAIKOO SHING - NING ON MANSION,10/1/1980 0:00,1357,88742.3,3384.8,92127.1,30,44,63000,0.1,1,0,0,0,1,840177,816359,Eastern,*
1918,11392,481,22.26759,114.24384,YIKO INDUSTRIAL BUILDING,12/1/1988 0:00,0,0,19318.7,19318.7,25,36,20500,1.5,1,0,0,1,0,0,0,Eastern, 
1924,16184,456,22.29166,114.20393,HEALTHY GARDENS BLOCK B,12/1/1979 0:00,0,52630,11730,64360,27,45,30000,0.3,1,0,0,0,1,839058,816971,Eastern,*
1927,16728,538,22.28674,114.19815,BEVERLEY HEIGHTS BLOCK 4,10/1/1979 0:00,320,25547.2,0,25547.2,24,45,90160,1.5,1,0,0,0,0,838460,816434,Eastern,*
1930,12062,446,22.29151,114.20417,HEALTHY GARDENS BLOCK D,12/1/1979 0:00,0,52630,11730,64360,27,45,30000,0.4,1,0,0,0,1,839083,816957,Eastern,*
1942,15083,716,22.28714,114.21527,TAIKOO SHING - TSUI KUNG MANSION,1/1/1980 0:00,1456,106804,3109.2,109913.2,29,45,64210,0.6,1,0,0,0,1,840216,816473,Eastern,*
1945,17118,701,22.28687,114.21408,TAIKOO SHING - KIN ON MANSION,10/1/1980 0:00,1357,88742.3,3384.8,92127.1,30,44,63000,0.5,1,0,0,0,1,840097,816442,Eastern,*
1959,14304,446,22.29166,114.20393,HEALTHY GARDENS BLOCK B,12/1/1979 0:00,0,52630,11730,64360,27,45,30000,0.3,1,0,0,0,1,839058,816971,Eastern,*
1962,15426,446,22.29151,114.20417,HEALTHY GARDENS BLOCK D,12/1/1979 0:00,0,52630,11730,64360,27,45,30000,0.4,1,0,0,0,1,839083,816957,Eastern,*
1968,12500,456,22.29151,114.20417,HEALTHY GARDENS BLOCK D,12/1/1979 0:00,0,52630,11730,64360,27,45,30000,0.4,1,0,0,0,1,839083,816957,Eastern,*
1972,15020,719,22.28715,114.1982,BEVERLEY HEIGHTS BLOCK 1,10/1/1979 0:00,320,25547.2,0,25547.2,24,45,90160,1.5,1,0,0,1,0,838466,816479,Eastern,*
1976,17809,420,22.28957,114.20908,LIDO APARTMENTS,5/1/1958 0:00,0,12936.5,542.9,13479.4,17,66,26990,0.2,1,1,0,1,0,839609,816746,Eastern,**
1985,14664,716,22.2868,114.21632,TAIKOO SHING - YEN KUNG MANSION,1/1/1980 0:00,1456,106804,3109.2,109913.2,29,45,64210,0.7,1,0,0,0,1,840340,816436,Eastern,*
1987,19897,583,22.28652,114.21407,TAIKOO SHING - HING ON MANSION,10/1/1980 0:00,1357,88742.3,3384.8,92127.1,30,44,63000,0.5,1,0,0,0,1,840101,816396,Eastern,*
1989,20240,583,22.28652,114.21407,TAIKOO SHING - HING ON MANSION,10/1/1980 0:00,1357,88742.3,3384.8,92127.1,30,44,63000,0.5,1,0,0,0,1,840101,816396,Eastern,*
1990,17924,530,22.28618,114.21481,TAIKOO SHING - NING ON MANSION,10/1/1980 0:00,1357,88742.3,3384.8,92127.1,30,44,63000,0.1,1,0,0,0,1,840177,816359,Eastern,*
1991,11355,546,22.26759,114.24384,YIKO INDUSTRIAL BUILDING,12/1/1988 0:00,0,0,19318.7,19318.7,25,36,20500,1.5,1,0,0,1,0,0,0,Eastern, 
1996,15660,530,22.28618,114.21481,TAIKOO SHING - NING ON MANSION,10/1/1980 0:00,1357,88742.3,3384.8,92127.1,30,44,63000,0.1,1,0,0,0,1,840177,816359,Eastern,*
1998,15647,703,22.28618,114.21481,TAIKOO SHING - NING ON MANSION,10/1/1980 0:00,1357,88742.3,3384.8,92127.1,30,44,63000,0.1,1,0,0,0,1,840177,816359,Eastern,*
1999,16379,580,22.28618,114.21481,TAIKOO SHING - NING ON MANSION,10/1/1980 0:00,1357,88742.3,3384.8,92127.1,30,44,63000,0.1,1,0,0,0,1,840177,816359,Eastern,*
2002,16012,662,22.28636,114.21978,TAIKOO SHING - HOI SING MANSION,6/1/1983 0:00,1664,116879,4076.6,120955.6,29,41,54000,0.7,1,0,0,0,1,840689,816381,Eastern,*
2003,12000,650,22.28729,114.19421,FU DAT COURT,6/1/1981 0:00,720,50505.6,0,50505.6,33,43,51000,0.05,1,0,0,0,1,838056,816492,Eastern,*
2004,13803,652,22.28729,114.19421,FU DAT COURT,6/1/1981 0:00,720,50505.6,0,50505.6,33,43,51000,0.05,1,0,0,0,1,838056,816492,Eastern,*
2005,13953,645,22.28758,114.1937,FU BON COURT,6/1/1981 0:00,720,50505.6,0,50505.6,33,43,51000,0.05,1,0,0,1,1,838001,816521,Eastern,*
2006,13006,652,22.28729,114.19421,FU DAT COURT,6/1/1981 0:00,720,50505.6,0,50505.6,33,43,51000,0.05,1,0,0,0,1,838056,816492,Eastern,*
2009,14480,703,22.28653,114.21443,TAIKOO SHING - SHUN ON MANSION,10/1/1980 0:00,1357,88742.3,3384.8,92127.1,30,44,63000,0.5,1,0,0,0,1,840138,816397,Eastern,*
2010,14716,530,22.28653,114.21443,TAIKOO SHING - SHUN ON MANSION,10/1/1980 0:00,1357,88742.3,3384.8,92127.1,30,44,63000,0.5,1,0,0,0,1,840138,816397,Eastern,*
2012,15558,707,22.28669,114.21978,TAIKOO SHING - TIEN SING MANSION,6/1/1983 0:00,1664,116879,4076.6,120955.6,29,41,54000,0.7,1,0,0,0,1,840698,816423,Eastern,*
2013,16898,503,22.28636,114.21978,TAIKOO SHING - HOI SING MANSION,6/1/1983 0:00,1664,116879,4076.6,120955.6,29,41,54000,0.7,1,0,0,0,1,840689,816381,Eastern,*
2017,13444,662,22.28636,114.21978,TAIKOO SHING - HOI SING MANSION,6/1/1983 0:00,1664,116879,4076.6,120955.6,29,41,54000,0.7,1,0,0,0,1,840689,816381,Eastern,*
2018,15344,580,22.28722,114.21408,TAIKOO SHING - KO ON MANSION,10/1/1980 0:00,1357,88742.3,3384.8,92127.1,30,44,63000,0.5,1,0,0,0,1,840096,816482,Eastern,*
2019,15936,502,22.28637,114.21835,TAIKOO SHING - CHI SING MANSION,6/1/1983 0:00,1664,116879,4076.6,120955.6,29,41,54000,0.8,1,0,0,0,1,840542,816381,Eastern,*
2025,14398,582,22.28637,114.21941,TAIKOO SHING - WAI SING MANSION,6/1/1983 0:00,1664,116879,4076.6,120955.6,29,41,54000,0.7,1,0,0,0,1,840652,816381,Eastern,*
2027,16334,502,22.28637,114.21835,TAIKOO SHING - CHI SING MANSION,6/1/1983 0:00,1664,116879,4076.6,120955.6,29,41,54000,0.8,1,0,0,0,1,840542,816381,Eastern,*
2028,15060,664,22.28636,114.2187,TAIKOO SHING - YIU SING MANSION,6/1/1983 0:00,1664,116879,4076.6,120955.6,29,41,54000,0.8,1,0,0,0,1,840579,816381,Eastern,*
2030,9944,543,22.28982,114.20456,BEDFORD GARDENS - PAK KAI COURT,4/1/1981 0:00,0,9989.8,0,9989.8,20,43,34910,0.5,1,0,0,0,1,839122,816762,Eastern,*
2031,13650,652,22.28744,114.19395,FU WAI COURT,6/1/1981 0:00,720,50505.6,0,50505.6,33,43,51000,0.05,1,0,0,0,1,838029,816506,Eastern,*
2041,16867,664,22.28637,114.21941,TAIKOO SHING - WAI SING MANSION,6/1/1983 0:00,1664,116879,4076.6,120955.6,29,41,54000,0.7,1,0,0,0,1,840652,816381,Eastern,*
2047,13076,650,22.28729,114.19421,FU DAT COURT,6/1/1981 0:00,720,50505.6,0,50505.6,33,43,51000,0.05,1,0,0,0,1,838056,816492,Eastern,*
2052,16591,663,22.28647,114.19721,MAIDEN COURT BLOCK B,10/1/1980 0:00,200,17647.6,26.7,17674.3,25,44,90160,0.5,1,0,0,0,0,838362,816397,Eastern,*
2062,14417,652,22.28758,114.1937,FU BON COURT,6/1/1981 0:00,720,50505.6,0,50505.6,33,43,51000,0.05,1,0,0,1,1,838001,816521,Eastern,*
2066,11308,451,22.28928,114.20465,BEDFORD GARDENS - ON FOOK COURT,4/1/1981 0:00,0,5422.5,0,5422.5,19,43,34910,0.6,1,0,0,0,1,839130,816699,Eastern,*
2068,14224,703,22.28653,114.21443,TAIKOO SHING - SHUN ON MANSION,10/1/1980 0:00,1357,88742.3,3384.8,92127.1,30,44,63000,0.5,1,0,0,0,1,840138,816397,Eastern,*
2072,17758,580,22.28722,114.21408,TAIKOO SHING - KO ON MANSION,10/1/1980 0:00,1357,88742.3,3384.8,92127.1,30,44,63000,0.5,1,0,0,0,1,840096,816482,Eastern,*
2074,17892,503,22.28636,114.2187,TAIKOO SHING - YIU SING MANSION,6/1/1983 0:00,1664,116879,4076.6,120955.6,29,41,54000,0.8,1,0,0,0,1,840579,816381,Eastern,*
2076,16379,580,22.28722,114.21408,TAIKOO SHING - KO ON MANSION,10/1/1980 0:00,1357,88742.3,3384.8,92127.1,30,44,63000,0.5,1,0,0,0,1,840096,816482,Eastern,*
2079,14604,582,22.28637,114.21835,TAIKOO SHING - CHI SING MANSION,6/1/1983 0:00,1664,116879,4076.6,120955.6,29,41,54000,0.8,1,0,0,0,1,840542,816381,Eastern,*
2080,15247,707,22.28669,114.21978,TAIKOO SHING - TIEN SING MANSION,6/1/1983 0:00,1664,116879,4076.6,120955.6,29,41,54000,0.7,1,0,0,0,1,840698,816423,Eastern,*
2081,17729,502,22.28637,114.21941,TAIKOO SHING - WAI SING MANSION,6/1/1983 0:00,1664,116879,4076.6,120955.6,29,41,54000,0.7,1,0,0,0,1,840652,816381,Eastern,*
2085,16830,713,22.28647,114.19721,MAIDEN COURT BLOCK B,10/1/1980 0:00,200,17647.6,26.7,17674.3,25,44,90160,0.5,1,0,0,0,0,838362,816397,Eastern,*
2086,10237,547,22.28976,114.20427,BEDFORD GARDENS - PAK CHEUNG COURT,4/1/1981 0:00,0,9420.2,0,9420.2,21,43,34910,0.5,1,0,0,1,1,839092,816756,Eastern,*
2088,10033,606,22.28955,114.20462,BEDFORD GARDENS - PAK SING COURT,4/1/1981 0:00,0,9803.1,0,9803.1,20,43,34910,0.5,1,0,0,0,1,839128,816732,Eastern,*
2090,16314,502,22.28637,114.21835,TAIKOO SHING - CHI SING MANSION,6/1/1983 0:00,1664,116879,4076.6,120955.6,29,41,54000,0.8,1,0,0,0,1,840542,816381,Eastern,*
2091,17345,663,22.28647,114.19721,MAIDEN COURT BLOCK B,10/1/1980 0:00,200,17647.6,26.7,17674.3,25,44,90160,0.5,1,0,0,0,0,838362,816397,Eastern,*
2097,15607,551,22.28636,114.21978,TAIKOO SHING - HOI SING MANSION,6/1/1983 0:00,1664,116879,4076.6,120955.6,29,41,54000,0.7,1,0,0,0,1,840689,816381,Eastern,*
2098,17068,580,22.28722,114.21408,TAIKOO SHING - KO ON MANSION,10/1/1980 0:00,1357,88742.3,3384.8,92127.1,30,44,63000,0.5,1,0,0,0,1,840096,816482,Eastern,*
2102,17118,701,22.28722,114.21408,TAIKOO SHING - KO ON MANSION,10/1/1980 0:00,1357,88742.3,3384.8,92127.1,30,44,63000,0.5,1,0,0,0,1,840096,816482,Eastern,*
2104,14214,598,22.28669,114.21978,TAIKOO SHING - TIEN SING MANSION,6/1/1983 0:00,1664,116879,4076.6,120955.6,29,41,54000,0.7,1,0,0,0,1,840698,816423,Eastern,*
2105,14405,597,22.28922,114.2044,BEDFORD GARDENS - HONG FOOK COURT,4/1/1981 0:00,0,7682.2,0,7682.2,19,43,34910,0.6,1,0,0,0,1,839105,816696,Eastern,*
2106,16583,603,22.28636,114.2187,TAIKOO SHING - YIU SING MANSION,6/1/1983 0:00,1664,116879,4076.6,120955.6,29,41,54000,0.8,1,0,0,0,1,840579,816381,Eastern,*
2109,16379,580,22.28636,114.21978,TAIKOO SHING - HOI SING MANSION,6/1/1983 0:00,1664,116879,4076.6,120955.6,29,41,54000,0.7,1,0,0,0,1,840689,816381,Eastern,*
2113,10681,543,22.28955,114.20462,BEDFORD GARDENS - PAK SING COURT,4/1/1981 0:00,0,9803.1,0,9803.1,20,43,34910,0.5,1,0,0,0,1,839128,816732,Eastern,*
2114,16039,717,22.28647,114.19721,MAIDEN COURT BLOCK B,10/1/1980 0:00,200,17647.6,26.7,17674.3,25,44,90160,0.5,1,0,0,0,0,838362,816397,Eastern,*
2116,14490,461,22.28991,114.19834,DELIGHTFUL MANSION,11/1/1980 0:00,96,4658.7,357.4,5016.1,25,44,40500,0.3,1,0,0,1,0,838476,816785,Eastern,*
2124,16405,701,22.28637,114.21835,TAIKOO SHING - CHI SING MANSION,6/1/1983 0:00,1664,116879,4076.6,120955.6,29,41,54000,0.8,1,0,0,0,1,840542,816381,Eastern,*
2127,16323,582,22.28636,114.2187,TAIKOO SHING - YIU SING MANSION,6/1/1983 0:00,1664,116879,4076.6,120955.6,29,41,54000,0.8,1,0,0,0,1,840579,816381,Eastern,*
2129,11524,597,22.28917,114.20411,BEDFORD GARDENS - KA FOOK COURT,4/1/1981 0:00,0,7792.3,1858.4,9650.7,19,43,34910,0.5,1,0,0,0,1,839076,816690,Eastern,*
2131,14146,410,22.28944,114.20409,BEDFORD GARDENS - TAK FOOK COURT,4/1/1981 0:00,0,5782.2,0,5782.2,21,43,34910,0.5,1,0,0,0,1,839074,816715,Eastern,*
2132,13991,461,22.29084,114.19754,AIK SAN MANSION,8/1/1977 0:00,92,4066.4,1147,5213.4,25,47,26330,0.4,1,0,0,1,0,838397,816872,Eastern,*
2136,10237,506,22.28928,114.20465,BEDFORD GARDENS - ON FOOK COURT,4/1/1981 0:00,0,5422.5,0,5422.5,19,43,34910,0.6,1,0,0,0,1,839130,816699,Eastern,*
2140,10423,401,22.28944,114.20409,BEDFORD GARDENS - TAK FOOK COURT,4/1/1981 0:00,0,5782.2,0,5782.2,21,43,34910,0.5,1,0,0,0,1,839074,816715,Eastern,*
2141,13249,717,22.28647,114.19721,MAIDEN COURT BLOCK B,10/1/1980 0:00,200,17647.6,26.7,17674.3,25,44,90160,0.5,1,0,0,0,0,838362,816397,Eastern,*
2142,17469,664,22.28637,114.21941,TAIKOO SHING - WAI SING MANSION,6/1/1983 0:00,1664,116879,4076.6,120955.6,29,41,54000,0.7,1,0,0,0,1,840652,816381,Eastern,*
2148,16973,707,22.28669,114.21978,TAIKOO SHING - TIEN SING MANSION,6/1/1983 0:00,1664,116879,4076.6,120955.6,29,41,54000,0.7,1,0,0,0,1,840698,816423,Eastern,*
2150,13746,662,22.28636,114.21978,TAIKOO SHING - HOI SING MANSION,6/1/1983 0:00,1664,116879,4076.6,120955.6,29,41,54000,0.7,1,0,0,0,1,840689,816381,Eastern,*
2152,14224,703,22.28653,114.21443,TAIKOO SHING - SHUN ON MANSION,10/1/1980 0:00,1357,88742.3,3384.8,92127.1,30,44,63000,0.5,1,0,0,0,1,840138,816397,Eastern,*
2153,15691,701,22.28722,114.21408,TAIKOO SHING - KO ON MANSION,10/1/1980 0:00,1357,88742.3,3384.8,92127.1,30,44,63000,0.5,1,0,0,0,1,840096,816482,Eastern,*
2161,16736,717,22.28647,114.19721,MAIDEN COURT BLOCK B,10/1/1980 0:00,200,17647.6,26.7,17674.3,25,44,90160,0.5,1,0,0,0,0,838362,816397,Eastern,*
2171,13448,580,22.28653,114.21443,TAIKOO SHING - SHUN ON MANSION,10/1/1980 0:00,1357,88742.3,3384.8,92127.1,30,44,63000,0.5,1,0,0,0,1,840138,816397,Eastern,*
2174,15463,582,22.28636,114.2187,TAIKOO SHING - YIU SING MANSION,6/1/1983 0:00,1664,116879,4076.6,120955.6,29,41,54000,0.8,1,0,0,0,1,840579,816381,Eastern,*
2176,14910,503,22.28636,114.2187,TAIKOO SHING - YIU SING MANSION,6/1/1983 0:00,1664,116879,4076.6,120955.6,29,41,54000,0.8,1,0,0,0,1,840579,816381,Eastern,*
2177,13650,652,22.28744,114.19395,FU WAI COURT,6/1/1981 0:00,720,50505.6,0,50505.6,33,43,51000,0.05,1,0,0,0,1,838029,816506,Eastern,*
2180,13803,652,22.28744,114.19395,FU WAI COURT,6/1/1981 0:00,720,50505.6,0,50505.6,33,43,51000,0.05,1,0,0,0,1,838029,816506,Eastern,*
2184,17586,580,22.28722,114.21408,TAIKOO SHING - KO ON MANSION,10/1/1980 0:00,1357,88742.3,3384.8,92127.1,30,44,63000,0.5,1,0,0,0,1,840096,816482,Eastern,*
2186,18924,502,22.28637,114.21941,TAIKOO SHING - WAI SING MANSION,6/1/1983 0:00,1664,116879,4076.6,120955.6,29,41,54000,0.7,1,0,0,0,1,840652,816381,Eastern,*
2192,13627,543,22.28949,114.20433,BEDFORD GARDENS - PAK HEE COURT,4/1/1981 0:00,0,9460.3,0,9460.3,21,43,34910,0.5,1,0,0,0,1,839099,816726,Eastern,*
2199,12908,581,22.28928,114.20465,BEDFORD GARDENS - ON FOOK COURT,4/1/1981 0:00,0,5422.5,0,5422.5,19,43,34910,0.6,1,0,0,0,1,839130,816699,Eastern,*
2203,17697,582,22.28637,114.21835,TAIKOO SHING - CHI SING MANSION,6/1/1983 0:00,1664,116879,4076.6,120955.6,29,41,54000,0.8,1,0,0,0,1,840542,816381,Eastern,*
2212,13538,650,22.28744,114.19395,FU WAI COURT,6/1/1981 0:00,720,50505.6,0,50505.6,33,43,51000,0.05,1,0,0,0,1,838029,816506,Eastern,*
2214,13953,645,22.28744,114.19395,FU WAI COURT,6/1/1981 0:00,720,50505.6,0,50505.6,33,43,51000,0.05,1,0,0,0,1,838029,816506,Eastern,*
2216,14925,603,22.28636,114.21978,TAIKOO SHING - HOI SING MANSION,6/1/1983 0:00,1664,116879,4076.6,120955.6,29,41,54000,0.7,1,0,0,0,1,840689,816381,Eastern,*
2223,10805,633,22.28917,114.20411,BEDFORD GARDENS - KA FOOK COURT,4/1/1981 0:00,0,7792.3,1858.4,9650.7,19,43,34910,0.5,1,0,0,0,1,839076,816690,Eastern,*
2227,12153,650,22.28744,114.19395,FU WAI COURT,6/1/1981 0:00,720,50505.6,0,50505.6,33,43,51000,0.05,1,0,0,0,1,838029,816506,Eastern,*
2228,15871,717,22.28647,114.19721,MAIDEN COURT BLOCK B,10/1/1980 0:00,200,17647.6,26.7,17674.3,25,44,90160,0.5,1,0,0,0,0,838362,816397,Eastern,*
2236,15517,580,22.28722,114.21408,TAIKOO SHING - KO ON MANSION,10/1/1980 0:00,1357,88742.3,3384.8,92127.1,30,44,63000,0.5,1,0,0,0,1,840096,816482,Eastern,*
2237,13798,645,22.28744,114.19395,FU WAI COURT,6/1/1981 0:00,720,50505.6,0,50505.6,33,43,51000,0.05,1,0,0,0,1,838029,816506,Eastern,*
2247,11219,410,22.28944,114.20409,BEDFORD GARDENS - TAK FOOK COURT,4/1/1981 0:00,0,5782.2,0,5782.2,21,43,34910,0.5,1,0,0,0,1,839074,816715,Eastern,*
2263,14615,650,22.28744,114.19395,FU WAI COURT,6/1/1981 0:00,720,50505.6,0,50505.6,33,43,51000,0.05,1,0,0,0,1,838029,816506,Eastern,*
2266,15503,645,22.28758,114.1937,FU BON COURT,6/1/1981 0:00,720,50505.6,0,50505.6,33,43,51000,0.05,1,0,0,1,1,838001,816521,Eastern,*
2281,12456,578,22.28944,114.20409,BEDFORD GARDENS - TAK FOOK COURT,4/1/1981 0:00,0,5782.2,0,5782.2,21,43,34910,0.5,1,0,0,0,1,839074,816715,Eastern,*
2283,11517,547,22.29009,114.2045,BEDFORD GARDENS - HUNG FOOK COURT,4/1/1981 0:00,0,9973.8,0,9973.8,20,43,34910,0.5,1,0,0,0,1,839116,816791,Eastern,*
2288,12054,438,22.28892,114.19684,CHING WAH MANSION,6/1/1966 0:00,0,2135,610,2745,9,58,50000,0.5,1,0,0,1,0,838327,816664,Eastern,*
2297,10682,410,22.28944,114.20409,BEDFORD GARDENS - TAK FOOK COURT,4/1/1981 0:00,0,5782.2,0,5782.2,21,43,34910,0.5,1,0,0,0,1,839074,816715,Eastern,*
2302,18043,603,22.28636,114.21978,TAIKOO SHING - HOI SING MANSION,6/1/1983 0:00,1664,116879,4076.6,120955.6,29,41,54000,0.7,1,0,0,0,1,840689,816381,Eastern,*
2304,19483,503,22.28636,114.21978,TAIKOO SHING - HOI SING MANSION,6/1/1983 0:00,1664,116879,4076.6,120955.6,29,41,54000,0.7,1,0,0,0,1,840689,816381,Eastern,*
2305,16603,530,22.28653,114.21443,TAIKOO SHING - SHUN ON MANSION,10/1/1980 0:00,1357,88742.3,3384.8,92127.1,30,44,63000,0.5,1,0,0,0,1,840138,816397,Eastern,*
2306,12403,645,22.28758,114.1937,FU BON COURT,6/1/1981 0:00,720,50505.6,0,50505.6,33,43,51000,0.05,1,0,0,1,1,838001,816521,Eastern,*
2308,16003,603,22.28636,114.21978,TAIKOO SHING - HOI SING MANSION,6/1/1983 0:00,1664,116879,4076.6,120955.6,29,41,54000,0.7,1,0,0,0,1,840689,816381,Eastern,*
2316,11565,543,22.28949,114.20433,BEDFORD GARDENS - PAK HEE COURT,4/1/1981 0:00,0,9460.3,0,9460.3,21,43,34910,0.5,1,0,0,0,1,839099,816726,Eastern,*
2339,10351,483,22.26482,114.23878,YAT YEE HOUSE,12/1/1981 0:00,0,31837.5,212.3,32049.8,28,43,27600,0.4,1,0,0,0,0,842654,813992,Eastern,*
2342,12250,400,22.29812,114.17289,HUMPHREYS BUILDING,11/1/1976 0:00,0,0,2161.9,2161.9,12,48,32540,0.05,1,0,0,0,0,0,0,Yau Tsim Mong, 
2343,8695,414,22.31799,114.17323,WAH LOK BUILDING,5/1/1963 0:00,0,4418.7,264.5,4683.2,15,61,26000,0.4,1,1,0,1,0,835889,819892,Yau Tsim Mong,**
2344,13552,701,22.28669,114.2187,TAIKOO SHING - KAM SING MANSION,6/1/1983 0:00,1664,116879,4076.6,120955.6,29,41,54000,0.8,1,0,0,0,1,840570,816423,Eastern,*
2346,15917,534,22.28716,114.19048,VICTORIA CENTRE - BLOCK 3,9/1/1981 0:00,512,32530.9,13502.6,46033.5,35,43,41960,0.5,1,0,0,0,0,837670,816475,Eastern,*
2359,14981,534,22.28716,114.19048,VICTORIA CENTRE - BLOCK 3,9/1/1981 0:00,512,32530.9,13502.6,46033.5,35,43,41960,0.5,1,0,0,0,0,837670,816475,Eastern,*
2363,18352,534,22.28716,114.19048,VICTORIA CENTRE - BLOCK 3,9/1/1981 0:00,512,32530.9,13502.6,46033.5,35,43,41960,0.5,1,0,0,0,0,837670,816475,Eastern,*
2366,15734,572,22.28744,114.19011,VICTORIA CENTRE - BLOCK 1,9/1/1981 0:00,512,32530.9,13502.6,46033.5,35,43,41960,0.5,1,0,0,0,0,837633,816504,Eastern,*
2370,10351,483,22.26462,114.23851,CHEONG YEE HOUSE,12/1/1981 0:00,0,31837.5,212.3,32049.8,28,43,27600,0.4,1,0,0,1,0,842627,813973,Eastern,*
2385,11600,931,22.2895,114.19648,WAH HAI MANSION,1/1/1982 0:00,0,9620.7,829.8,10450.5,26,43,34120,0.4,1,0,0,1,0,838284,816743,Eastern,*
2386,14035,684,22.28916,114.1972,UNIVERSAL TOWERS BLOCK A,2/1/1982 0:00,46,6959,896,7855,27,43,50000,0.5,1,0,0,0,0,838360,816695,Eastern,*
2402,13015,922,22.28761,114.22047,TAIKOO SHING - PRIMROSE MANSION,8/1/1983 0:00,224,21814.7,0,21814.7,30,41,77000,0.6,1,0,0,0,1,840760,816516,Eastern,*
2415,15463,582,22.28669,114.2187,TAIKOO SHING - KAM SING MANSION,6/1/1983 0:00,1664,116879,4076.6,120955.6,29,41,54000,0.8,1,0,0,0,1,840570,816423,Eastern,*
2426,10300,466,22.26482,114.23878,YAT YEE HOUSE,12/1/1981 0:00,0,31837.5,212.3,32049.8,28,43,27600,0.4,1,0,0,0,0,842654,813992,Eastern,*
2429,15264,511,22.2794,114.22986,TAI ON COURT,4/1/1982 0:00,144,6491.7,712.7,7204.4,25,42,32100,0.05,1,0,0,1,0,841728,815614,Eastern,*
2431,18438,461,22.28744,114.19011,VICTORIA CENTRE - BLOCK 1,9/1/1981 0:00,512,32530.9,13502.6,46033.5,35,43,41960,0.5,1,0,0,0,0,837633,816504,Eastern,*
2440,19230,572,22.28744,114.19011,VICTORIA CENTRE - BLOCK 1,9/1/1981 0:00,512,32530.9,13502.6,46033.5,35,43,41960,0.5,1,0,0,0,0,837633,816504,Eastern,*
2450,10879,432,22.27751,114.22793,KA YU BUILDING,12/1/1981 0:00,126,3465.4,825.4,4290.8,23,43,15750,0.1,1,0,0,0,0,0,0,Eastern, 
2455,11048,677,22.2895,114.19648,WAH HAI MANSION,1/1/1982 0:00,0,9620.7,829.8,10450.5,26,43,34120,0.4,1,0,0,1,0,838284,816743,Eastern,*
2457,11981,434,22.26451,114.23956,TAK LUK HOUSE,8/1/1982 0:00,0,9145.4,2170.8,11316.2,28,42,24740,0.4,1,0,0,0,0,842723,813967,Eastern,*
2477,9606,483,22.26462,114.23851,CHEONG YEE HOUSE,12/1/1981 0:00,0,31837.5,212.3,32049.8,28,43,27600,0.4,1,0,0,1,0,842627,813973,Eastern,*
2485,18041,582,22.28669,114.2187,TAIKOO SHING - KAM SING MANSION,6/1/1983 0:00,1664,116879,4076.6,120955.6,29,41,54000,0.8,1,0,0,0,1,840570,816423,Eastern,*
2495,16689,719,22.28702,114.2187,TAIKOO SHING - NGAN SING MANSION,6/1/1983 0:00,1664,116879,4076.6,120955.6,29,41,54000,0.9,1,0,0,0,1,840570,816459,Eastern,*
2502,14328,663,22.28686,114.19492,FU KAR COURT,7/1/1983 0:00,248,17670.9,342.4,18013.3,34,41,51000,0.3,1,0,0,1,1,838130,816443,Eastern,*
2506,13363,883,22.29094,114.19473,CITY GARDEN BLOCK 2,4/1/1983 0:00,0,57873,10355.8,68228.8,29,41,58780,0.4,1,0,0,0,1,838110,816889,Eastern,*
2520,11807,614,22.2891,114.20014,MING YUEN MANSIONS PHASE 1 BLOCK A,12/1/1968 0:00,0,30140.3,0,30140.3,22,56,36000,0.2,1,0,0,0,0,838664,816694,Eastern,*
2522,11448,642,22.2891,114.20014,MING YUEN MANSIONS PHASE 1 BLOCK A,12/1/1968 0:00,0,30140.3,0,30140.3,22,56,36000,0.2,1,0,0,0,0,838664,816694,Eastern,*
2540,14388,834,22.29225,114.19609,PROVIDENT CENTRE BLOCK 5,11/1/1982 0:00,0,67251.4,0,67251.4,28,42,47040,0.5,1,0,0,0,1,838243,817035,Eastern,*
2545,13021,897,22.29094,114.19473,CITY GARDEN BLOCK 2,4/1/1983 0:00,0,57873,10355.8,68228.8,29,41,58780,0.4,1,0,0,0,1,838110,816889,Eastern,*
2553,11338,792,22.29094,114.19473,CITY GARDEN BLOCK 2,4/1/1983 0:00,0,57873,10355.8,68228.8,29,41,58780,0.4,1,0,0,0,1,838110,816889,Eastern,*
2561,12373,792,22.29094,114.19473,CITY GARDEN BLOCK 2,4/1/1983 0:00,0,57873,10355.8,68228.8,29,41,58780,0.4,1,0,0,0,1,838110,816889,Eastern,*
2583,12019,614,22.2891,114.20014,MING YUEN MANSIONS PHASE 1 BLOCK A,12/1/1968 0:00,0,30140.3,0,30140.3,22,56,36000,0.2,1,0,0,0,0,838664,816694,Eastern,*
2605,13005,792,22.29094,114.19473,CITY GARDEN BLOCK 2,4/1/1983 0:00,0,57873,10355.8,68228.8,29,41,58780,0.4,1,0,0,0,1,838110,816889,Eastern,*
2609,12143,807,22.29094,114.19473,CITY GARDEN BLOCK 2,4/1/1983 0:00,0,57873,10355.8,68228.8,29,41,58780,0.4,1,0,0,0,1,838110,816889,Eastern,*
2628,15228,788,22.29225,114.19609,PROVIDENT CENTRE BLOCK 5,11/1/1982 0:00,0,67251.4,0,67251.4,28,42,47040,0.5,1,0,0,0,1,838243,817035,Eastern,*
2631,11152,807,22.29094,114.19473,CITY GARDEN BLOCK 2,4/1/1983 0:00,0,57873,10355.8,68228.8,29,41,58780,0.4,1,0,0,0,1,838110,816889,Eastern,*
2639,12686,897,22.29094,114.19473,CITY GARDEN BLOCK 2,4/1/1983 0:00,0,57873,10355.8,68228.8,29,41,58780,0.4,1,0,0,0,1,838110,816889,Eastern,*
2657,12887,807,22.29094,114.19473,CITY GARDEN BLOCK 2,4/1/1983 0:00,0,57873,10355.8,68228.8,29,41,58780,0.4,1,0,0,0,1,838110,816889,Eastern,*
2666,14935,703,22.29192,114.19564,PROVIDENT CENTRE BLOCK 3,11/1/1982 0:00,0,67251.4,0,67251.4,28,42,47040,0.5,1,0,0,0,1,0,0,Eastern, 
2671,12601,792,22.29094,114.19473,CITY GARDEN BLOCK 2,4/1/1983 0:00,0,57873,10355.8,68228.8,29,41,58780,0.4,1,0,0,0,1,838110,816889,Eastern,*
2679,14869,807,22.29094,114.19473,CITY GARDEN BLOCK 2,4/1/1983 0:00,0,57873,10355.8,68228.8,29,41,58780,0.4,1,0,0,0,1,838110,816889,Eastern,*
2696,14376,473,22.28957,114.19672,WAH KIN MANSION,3/1/1983 0:00,0,4705.3,532,5237.3,26,42,34120,0.4,1,0,0,1,0,838310,816748,Eastern,*
2711,13725,510,22.2891,114.20014,MING YUEN MANSIONS PHASE 1 BLOCK A,12/1/1968 0:00,0,30140.3,0,30140.3,22,56,36000,0.2,1,0,0,0,0,838664,816694,Eastern,*
2760,13154,897,22.28762,114.21549,TAIKOO SHING - OAK MANSION,6/1/1984 0:00,216,21772,0,21772,30,40,77900,0.6,1,0,0,0,1,840247,816518,Eastern,*
2766,12958,463,22.29075,114.20381,FULL WEALTH GARDENS GOLDEN PINE COURT (BLOCK 1),8/1/1984 0:00,0,7462.5,0,7462.5,27,40,34910,0.3,1,0,0,0,0,839041,816880,Eastern,*
2770,11530,503,22.26606,114.23421,KOWAY COURT BLOCK 3,12/1/1983 0:00,704,34488.9,8812.3,43301.2,28,41,43400,0.3,1,0,0,0,0,842176,814136,Eastern,*
2788,18317,535,22.281,114.22384,WING HING COURT,10/1/1994 0:00,68,2883.3,663.3,3546.6,20,30,19800,0.2,1,0,0,1,0,841110,815796,Eastern,*
2789,12959,446,22.29053,114.20387,FULL WEALTH GARDENS GOLDEN CEDAR COURT (BLOCK 2),8/1/1984 0:00,0,7772.7,0,7772.7,28,40,34910,0.4,1,0,0,0,0,839046,816856,Eastern,*
2794,16822,535,22.281,114.22384,WING HING COURT,10/1/1994 0:00,68,2883.3,663.3,3546.6,20,30,19800,0.2,1,0,0,1,0,841110,815796,Eastern,*
2809,9343,503,22.26649,114.23392,KOWAY COURT BLOCK 1,12/1/1983 0:00,704,34488.9,8812.3,43301.2,28,41,43400,0.4,1,0,0,0,0,842147,814184,Eastern,*
2821,14125,446,22.29053,114.20387,FULL WEALTH GARDENS GOLDEN CEDAR COURT (BLOCK 2),8/1/1984 0:00,0,7772.7,0,7772.7,28,40,34910,0.4,1,0,0,0,0,839046,816856,Eastern,*
2828,13408,446,22.29075,114.20381,FULL WEALTH GARDENS GOLDEN PINE COURT (BLOCK 1),8/1/1984 0:00,0,7462.5,0,7462.5,27,40,34910,0.3,1,0,0,0,0,839041,816880,Eastern,*
2830,13225,558,22.28068,114.23045,TUNG PO MANSION,5/1/1984 0:00,100,5949.9,1017.6,6967.5,27,40,32100,0.05,1,0,0,0,0,841795,815747,Eastern,*
2833,9750,441,22.32324,114.16709,WING KWONG BUILDING,4/1/1965 0:00,0,2603.8,201.9,2805.7,14,59,17490,0.05,1,0,0,1,0,835259,820470,Yau Tsim Mong,*
2836,16098,733,22.29244,114.19759,PROVIDENT CENTRE BLOCK 15,5/1/1984 0:00,0,45945.7,0,45945.7,28,40,47040,0.3,1,0,0,0,1,838395,817061,Eastern,*
2837,15721,762,22.28122,114.19255,DRAGON HEART COURT,4/1/1984 0:00,72,6067.1,0,6067.1,26,40,60000,0.3,1,0,0,1,0,837891,815813,Eastern,*
2858,14047,840,22.29262,114.19783,PROVIDENT CENTRE BLOCK 16,5/1/1984 0:00,0,45945.7,0,45945.7,28,40,47040,0.3,1,0,0,0,1,838431,817077,Eastern,*
2873,12286,503,22.26649,114.23392,KOWAY COURT BLOCK 1,12/1/1983 0:00,704,34488.9,8812.3,43301.2,28,41,43400,0.4,1,0,0,0,0,842147,814184,Eastern,*
2883,12508,558,22.28068,114.23045,TUNG PO MANSION,5/1/1984 0:00,100,5949.9,1017.6,6967.5,27,40,32100,0.05,1,0,0,0,0,841795,815747,Eastern,*
2898,11111,504,22.26661,114.23466,GREENWOOD TERRACE TOWER 2,7/1/1985 0:00,0,20579.9,0,20579.9,31,39,39700,0.3,1,0,0,0,1,842213,814194,Eastern,*
2900,14937,723,22.2864,114.22061,TAIKOO SHING - TUNG HOI MANSION,4/1/1985 0:00,632,43058.5,998.2,44056.7,29,39,44160,0.6,1,0,0,0,1,840774,816382,Eastern,*
2904,18739,587,22.28641,114.22024,TAIKOO SHING - NAM HOI MANSION,4/1/1985 0:00,632,43058.5,998.2,44056.7,29,39,44160,0.6,1,0,0,0,1,840736,816386,Eastern,*
2912,16949,708,22.2864,114.22061,TAIKOO SHING - TUNG HOI MANSION,4/1/1985 0:00,632,43058.5,998.2,44056.7,29,39,44160,0.6,1,0,0,0,1,840774,816382,Eastern,*
2920,9287,646,22.26762,114.23514,GREENWOOD TERRACE TOWER 5,7/1/1985 0:00,0,20579.9,0,20579.9,31,39,39700,0.5,1,0,0,0,1,842273,814317,Eastern,*
2928,8978,646,22.26661,114.23466,GREENWOOD TERRACE TOWER 2,7/1/1985 0:00,0,20579.9,0,20579.9,31,39,39700,0.3,1,0,0,0,1,842213,814194,Eastern,*
2932,20979,572,22.2864,114.22061,TAIKOO SHING - TUNG HOI MANSION,4/1/1985 0:00,632,43058.5,998.2,44056.7,29,39,44160,0.6,1,0,0,0,1,840774,816382,Eastern,*
2934,20442,587,22.28641,114.22024,TAIKOO SHING - NAM HOI MANSION,4/1/1985 0:00,632,43058.5,998.2,44056.7,29,39,44160,0.6,1,0,0,0,1,840736,816386,Eastern,*
2940,16666,708,22.28708,114.22059,TAIKOO SHING - PAK HOI MANSION,4/1/1985 0:00,632,43058.5,998.2,44056.7,29,39,44160,0.6,1,0,0,0,1,840772,816473,Eastern,*
2941,14480,587,22.28641,114.22024,TAIKOO SHING - NAM HOI MANSION,4/1/1985 0:00,632,43058.5,998.2,44056.7,29,39,44160,0.6,1,0,0,0,1,840736,816386,Eastern,*
2945,20833,552,22.28641,114.22024,TAIKOO SHING - NAM HOI MANSION,4/1/1985 0:00,632,43058.5,998.2,44056.7,29,39,44160,0.6,1,0,0,0,1,840736,816386,Eastern,*
2949,15368,488,22.28641,114.22024,TAIKOO SHING - NAM HOI MANSION,4/1/1985 0:00,632,43058.5,998.2,44056.7,29,39,44160,0.6,1,0,0,0,1,840736,816386,Eastern,*
2975,15734,572,22.28708,114.22059,TAIKOO SHING - PAK HOI MANSION,4/1/1985 0:00,632,43058.5,998.2,44056.7,29,39,44160,0.6,1,0,0,0,1,840772,816473,Eastern,*
2980,15748,508,22.28641,114.22024,TAIKOO SHING - NAM HOI MANSION,4/1/1985 0:00,632,43058.5,998.2,44056.7,29,39,44160,0.6,1,0,0,0,1,840736,816386,Eastern,*
2988,15472,572,22.2864,114.22061,TAIKOO SHING - TUNG HOI MANSION,4/1/1985 0:00,632,43058.5,998.2,44056.7,29,39,44160,0.6,1,0,0,0,1,840774,816382,Eastern,*
2992,19467,488,22.28641,114.22024,TAIKOO SHING - NAM HOI MANSION,4/1/1985 0:00,632,43058.5,998.2,44056.7,29,39,44160,0.6,1,0,0,0,1,840736,816386,Eastern,*
